관련 태그 전체,콘텐츠 ID,콘텐츠명,주소,도로명주소,태그,간단소개,위도,경도,우편번호,전화번호,썸네일 이미지경로,page
"쇼핑,관광기념품,상점/상가,현금결제,카드결제",CNTS_000000000019728,제주소랑,제주시 한림읍 명월리 357,제주특별자치도 제주시 한림읍 명상로 19,"쇼핑,관광기념품,상점/상가",제주 명월리 특산물 명월초 관련 건강식품 제조 및 판매,33.374916,126.281364,63014,070-8232-8242,,https://place.map.kakao.com/2040504618#comment
"공방,착한가격 업소",CONT_000000000500725,아름낭,제주특별자치도 서귀포시 강정동 1938-1,제주특별자치도 서귀포시 중산간서로157번길 26,"공방,쇼핑,관광기념품,상점/상가",1980년부터 제주도에 전통가구 공방을 설립한 뒤로 35년간 오직 친환경 수제품만 제작해온 목공예 브랜드,33.258267,126.4946813,,064-738-6081,,https://place.map.kakao.com/436075792#comment
"꽃집, 꽃, 쇼핑,기념품/소품,꽃다발",CNTS_200000000007088,아꼬화,제주특별자치도 제주시 일도2동 365-12,제주특별자치도 제주시 동광로 102,"꽃집,꽃,쇼핑,관광기념품,상점/상가",남들과는 조금 다른 여행을 계획하고 있는 당신. 사랑하는 사람과 두 손 꼭 잡고 제주행 비행기에 올라 일정을 체크하고 있는가. 완벽한 셀프웨딩촬영을 위해 제주시내의 꽃집을 찾고 있다면 아꼬화를 방문해보자.,33.5056021,126.5386239,,064-758-0964,,https://place.map.kakao.com/41896940#comment
"불량식품,과자,쇼핑",CNTS_200000000008039,승희상회,제주특별자치도 제주시 구좌읍 종달리 826-3,제주특별자치도 제주시 구좌읍 종달로5길 32-1,"불량식품,과자,쇼핑,관광기념품,상점/상가","어릴 적 추억을 떠올리게 하는 작은 가게
",33.4924926,126.8970535,,064-783-3237,,https://place.map.kakao.com/25758102#comment
"쇼핑,기념품,,현금결제,카드결제,화장실,무료 WIFI,유도 및 안내시설,경보 및 피난시설,아주 어려움,착한가격 업소",CONT_000000000500721,디자인에이비,제주특별자치도 제주시 한경면 판포리 2854-10,제주특별자치도 제주시 한경면 판포4길 22,"쇼핑,기념품,관광기념품,상점/상가",제주 콘텐츠 디자인 상품을 개발 및 판매하는 디자인에이비,33.3630264,126.2015472,,070-738-8201,,https://place.map.kakao.com/26848850#comment
"특산품,착한가격 업소",CONT_000000000500727,바당의물질,제주특별자치도 제주시 임항로 49,제주특별자치도 제주시 임항로 49,"특산품,쇼핑,관광기념품,상점/상가","각종 해산물, 지역특산품, 가공식품 등 판매",33.5168,126.529816,,064-758-3945,,정보없음
"흑백사진관, 스튜디오",CNTS_200000000008154,곱은달사진관,제주특별자치도 제주시 조천읍 대흘리 518-1,제주특별자치도 제주시 조천읍 곱은달길 24,"흑백사진관,스튜디오,쇼핑,관광기념품,상점/상가",조천읍에 위치한 흑백사진관,33.513688,126.6710737,,010-7149-3147,,https://place.map.kakao.com/980535976#comment
체험,CNTS_000000000022128,인한복,제주특별자치도 제주시 노형동 2519-16,제주특별자치도 제주시 정존3길 1-3,"체험,쇼핑,관광기념품,상점/상가",인한복은 한복체험 서비스를 제공한다.,33.48196,126.473465,63103,064-757-3118,,https://place.map.kakao.com/17159455#comment
"특산품,공용주차장,현금결제,카드결제,화장실,무료 WIFI",CNTS_000000000021302,아트앤제주,제주특별자치도 제주시 노형동 2684,제주특별자치도 제주시 월광로 135,"특산품,쇼핑,관광기념품,상점/상가",제주 특산물 쇼핑과 공예 체험을 한번에,33.491364,126.47258,63094,064-784-5260,,https://place.map.kakao.com/752809455#comment
"커플,혼자,친구,쇼핑,사계절,청년,휴식/치유,전시와 행사",CNTS_200000000009176,캔북스,제주특별자치도 제주시 이도이동 1974-11,제주특별자치도 제주시 남광로4길 27,"커플,혼자,친구,쇼핑,사계절,청년,휴식/치유,전시와 행사,관광기념품,상점/상가",캔버스(canvas)와 북(book)을 합성한 단어인 캔북스는 미술을 전공한 부부가 문을 연 작업실 겸 미술 전문 서점이다. ,33.4912491,126.5403833,,010-4441-5991,,정보없음
"꽃, 꽃집, 원데이클래스, 쇼핑,기념품/소품,꽃다발, 웨딩부케, 야외촬영부케,가능",CNTS_200000000007112,프레쉬모먼트,제주특별자치도 제주시 아라1동 6119-2,제주특별자치도 제주시 인다2길 8,"꽃,꽃집,원데이클래스,쇼핑,관광기념품,상점/상가","차근차근 사진 찍을 장소와 의상까지 마련해 놓았다면, 예비 신혼부부가 함께 웨딩부케를 만들어보자.",33.4672955,126.5451146,,064-702-7123,,정보없음
"꽃,꽃집,기념품/소품,꽃다발,가능",CNTS_200000000007109,안나네꽃마을,제주특별자치도 제주시 노형동 759-3,제주특별자치도 제주시 한라대학로 79,"꽃,꽃집,쇼핑,관광기념품,상점/상가",제주국제공항과 가까운 곳에 자리 잡고 있어 여행 전후로 많은 사람들이 찾는 꽃집 안나네꽃마을.,33.4765121,126.4788415,,064-712-1577,,https://place.map.kakao.com/10065988#comment
"특산품,귤,한라봉,천혜향,황금향,착한가격 업소",CONT_000000000500737,올레바다,제주특별자치도 서귀포시 법환동 1278,제주특별자치도 서귀포시 이어도로 903-1,"특산품,귤,한라봉,천혜향,황금향,쇼핑,관광기념품,상점/상가","귤, 한라봉, 천혜향 등 직접 재배한 제주 특산 과일을 판매",33.23716,126.51119,63573,010-8663-7205,,https://place.map.kakao.com/18063357#comment
"꽃, 꽃집, 쇼핑,공용주차장,무료 WIFI,카드결제,현금결제,기념품/소품,꽃다발, 웨딩부케,가능",CNTS_200000000007111,얼리스프링플라워,제주특별자치도 제주시 이도2동 2029-5,제주특별자치도 제주시 구남동2길 45-12,"꽃,꽃집,쇼핑,관광기념품,상점/상가","작은 규모이지만 플라워 클래스와 웨딩, 화분, 가드닝을 모두 진행하고 있는 얼리스프링 플라워스튜디오.",33.4875778,126.5345648,,064-702-7123,,https://place.map.kakao.com/1285577911#comment
"공방,기념품,,아주 어려움",CNTS_000000000022837,몸냥공작소,제주특별자치도 제주시 애월읍 유수암리 2503-1,제주특별자치도 제주시 애월읍 하소로 595,"공방,기념품,쇼핑,관광기념품,상점/상가",귀엽고 제주스러운 유니크한 소품가게,33.430614,126.39747,63067,--,,https://place.map.kakao.com/1373673567#comment
"특산품,공방,기념품,쇼핑,관광기념품,상점/상가",CNTS_000000000021864,미앤제주,제주특별자치도 제주시 한림읍 금악리 산 30-12,제주특별자치도 제주시 한림읍 광산로 942,"특산품,공방,기념품,쇼핑,관광기념품,상점/상가",화산석과 제주의 향을 이용하여 나만의 디자인 아이템을 만들 수 있는 곳,33.34772,126.35681,63021,010-6405-3656,,https://place.map.kakao.com/19575513#comment
"쇼핑,기념품/소품,도예품 등",CNTS_200000000014096,아라도예,제주특별자치도 제주시 애월읍 광령리 1227-3,제주특별자치도 제주시 애월읍 광령6길 2,"쇼핑,럭셔리트래블인제주",김수현 작가의 제주식 분청사기,33.3701721,126.4819697,,010-3696-1573,,https://place.map.kakao.com/15476035#comment
#전통시장 #상설시장 #제주시 #동문시장,CNTS_200000000012175,동문시장 ,제주특별자치도 제주시 일도일동 1148-2,제주특별자치도 제주시 동문로 16,"전통시장,쇼핑,상점/상가,관광기념품","각종 갈옷, 한복, 옷감 등 포목점을 주로 이루는 상가건물형 상설시장",33.5127431,126.5283168,,064-722-3284,,https://place.map.kakao.com/8265854#comment
"서점,현금결제,카드결제,아주 어려움",CNTS_000000000020911,우생당,제주특별자치도 제주시 일도일동 1438,제주특별자치도 제주시 관덕로 42,"서점,쇼핑,관광기념품,상점/상가",1945년부터 운영하고 있는 제주시내 서점,33.5129944,126.5238266,,064-722-2107,,https://place.map.kakao.com/10707405#comment
"쇼핑, 복합쇼핑몰,공용주차장,현금결제,카드결제,화장실,음료대,유도 및 안내시설,엘리베이터,단차없음,장애인 화장실,승강기,쉬움",CNTS_000000000022833,시티오브드림즈,제주특별자치도 제주시 일도1동 1298-28,제주특별자치도 제주시 관덕로11길 17,"쇼핑,복합쇼핑몰,관광기념품,상점/상가,무장애관광","세계유명 도시, 꿈의 도시를 모티브로한 복합쇼핑몰",33.514656,126.525246,63277,064-702-6189,,https://place.map.kakao.com/1222692625#comment
"쇼핑,공방,기념품,공용주차장,현금결제,카드결제,무료 WIFI,편의점",CNTS_000000000021301,아코하루,제주특별자치도 제주시 도련일동 1731-13,제주특별자치도 제주시 매촌2길 80,"쇼핑,공방,기념품,관광기념품,상점/상가",도자기로 만든 멋진 소품,33.5096625,126.5904168,63333,064-784-5220,,https://place.map.kakao.com/26885580#comment
"특산품, 한라봉,착한가격 업소",CONT_000000000500760,한마음한라봉,제주특별자치도 제주시 애월읍 애월리 1827-1,제주특별자치도 제주시 애월읍 애월해안로 32,"특산품,한라봉,쇼핑,관광기념품,상점/상가",제주영농조합법인에서 운영하는 제주특산물 판매처,33.451775,126.308685,63043,064-799-3859,,정보없음
"혼자,친구,휴식/힐링,책방,서점",CNTS_200000000009174,책약방,제주특별자치도 제주시 구좌읍 종달리 1765,제주특별자치도 제주시 구좌읍 종달로5길 11,"혼자,친구,휴식/힐링,책방,서점,쇼핑,관광기념품,상점/상가",사람 대신 책이 지키는 책방,33.4840385,126.9014964,,,,https://place.map.kakao.com/180808078#comment
"쇼핑,잡화,책,엽서",CNTS_200000000008045,인연의숲,제주특별자치도 제주시 구좌읍 종달리 1769,제주특별자치도 제주시 구좌읍 종달로5길 17,"쇼핑,잡화,책,엽서,숲,관광기념품,상점/상가","종달리에 위치한 기록형 잡화점
",33.4880673,126.8804954,,010-2542-7278,,https://place.map.kakao.com/1390418527#comment
낚시,CNTS_000000000022548,용연낚시,제주특별자치도 제주시 용담2동 465,제주특별자치도 제주시 용담2동 465,"낚시,쇼핑,관광기념품,상점/상가",제주공항근처에 위치한 낚시용품 전문점이다.,33.513515,126.51328,,-6548,,정보없음
"꽃, 꽃집, 쇼핑,기념품/소품,꽃다발, 웨딩부케, 야외촬영부케,가능",CNTS_200000000007110,한라꽃방,제주특별자치도 서귀포시 서귀동 478-12,제주특별자치도 서귀포시 이중섭로 34,"꽃,꽃집,쇼핑,관광기념품,상점/상가",과거 이중섭이 머물며 많은 작품을 남겼던 생가. 그 주변으로 조성된 이중섭 문화의 거리. 이곳에는 이중섭 박물관을 비롯해 카페와 소품샵 등 다양한 볼거리가 들어서 있다. 그리고 그 자리에 40년을 머물며 과거와 현재를 아우르는 한라꽃방.,33.2449997,126.5643448,,064-733-3059,,https://place.map.kakao.com/9548632#comment
"쇼핑,기념품",CNTS_200000000007257,풍년상회,제주특별자치도 제주시 조천읍 조천리 2229-15,제주특별자치도 제주시 조천읍 신북로 220,"쇼핑,기념품,관광기념품,상점/상가",화려하지 않은 외관에 수수한 매력이 있는 소품가게이다.,33.5356003,126.6365084,,,,https://place.map.kakao.com/540657232#comment
"쇼핑,기념품",CNTS_200000000007251,큰손상회,제주특별자치도 제주시 구좌읍 행원리 1537-11,제주특별자치도 제주시 구좌읍 행원로1길 26-2,"쇼핑,기념품,관광기념품,상점/상가", 독특한 외관이 매력적인 기념품 가게이다.,33.554242,126.8004857,,,,https://place.map.kakao.com/1938104550#comment
"쇼핑,라탄,원데이클래스,카드결제,현금결제,드림캐처, 캔들, 악세사리, 라탄 소품",CNTS_200000000007334,마야블루,제주특별자치도 제주시 노형동 1052-27,제주특별자치도 제주시 월랑로6길 21,"쇼핑,라탄,원데이클래스,관광기념품,상점/상가",마야블루는 제주 시내의 주택가 사이에 작은 간판으로 자신의 존재를 알리고 있다. 이곳은 소품 판매와 함께 공방을 운영하면서 드림캐처와 캔들 등 직접 만들어 볼 수 있는 원데이 클래스도 진행하고 있다,33.4895696,126.4785925,,010-8515-2470,,https://place.map.kakao.com/856680032#comment
"쇼핑,휴식/힐링,공용주차장,카드결제,현금결제,탐나는전,영어,쉬움",CNTS_200000000011815,제주그림,제주특별자치도 서귀포시 신효동 1121-2,제주특별자치도 서귀포시 효돈로 94,"쇼핑,휴식/힐링,관광기념품,상점/상가",제주의 잘 알려지지 않은 문화유산을 제품을 통해 이야기한다.,33.2631103,126.6090828,,010-3904-1711,,https://place.map.kakao.com/1738934843#comment
"쇼핑,라탄,현금결제,카드결제,공용주차장,현금결제,카드결제,기념품/소품,라탄 소품, 악세사리, 인테리어 소품",CNTS_200000000007337,아리아,제주특별자치도 제주시 아라1동 6119,제주특별자치도 제주시 인다3길 5,"쇼핑,라탄,관광기념품,상점/상가","제주시 아라동 빌라 1층에 있는 쓸모있는 생활잡화점은 소품샵 이름 그대로 쓸모 있는 생활 잡화들이 가득한 곳이다. 특히 라탄 소재의 잡화들이 많은데, 여러 색상과 각양각색의 무늬를 가진 라탄 소품이 넘쳐난다.",33.4261379,126.5626925,,010-5149-9070,,https://place.map.kakao.com/24710774#comment
"한복,기념품,쇼핑",CNTS_200000000008616,천진낭만,제주특별자치도 제주시 우도면 연평리 1807,제주특별자치도 제주시 우도면 우도해안길 108,"한복,기념품,쇼핑,관광기념품,상점/상가","우도천진항 인근에 위치한 소품숍. 
",33.5033191,126.9556775,,010-4337-0120 ,,https://place.map.kakao.com/2135313552#comment
"혼자,커플,쇼핑,엽서,포스터",CNTS_200000000009177,언제라도,제주특별자치도 제주시 구좌읍 하도리 1568,제주특별자치도 제주시 구좌읍 문주란로5길 34-2,"혼자,커플,쇼핑,엽서,포스터,관광기념품,상점/상가",바닷가와 가까운 조용한 마을에 자리 잡은 서점,33.5204746,126.8875582,,010-2956-1087,,https://place.map.kakao.com/508054192#comment
특산품,CNTS_000000000022113,메이드인제주,제주특별자치도 제주시 조천읍 대흘리 1148-6,제주특별자치도 제주시 조천읍 중산간동로 804-16,"특산품,쇼핑,관광기념품,상점/상가",국민건강을 생각하는 기업 (주)메이드인제주,33.4918364,126.6680718,,064-758-0404,,https://place.map.kakao.com/27289839#comment
"쇼핑,특산품,기념품,지오브랜드,,공용주차장,현금결제,카드결제,화장실,무료 WIFI,음료대,유도 및 안내시설,경보 및 피난시설,아주 어려움,지오브랜드",CNTS_000000000019322,마켓오름,제주특별자치도 서귀포시 서호동 24-6,제주특별자치도 서귀포시 이어도로 1061,"쇼핑,특산품,기념품,지오브랜드,관광기념품,상점/상가",직접 재배한 다양한 품종의 귤 및 수제식품 판매,33.24605,126.52413,63571,064-739-3223,,https://place.map.kakao.com/26509956#comment
"쇼핑,공방,지오브랜드,기념품,현금결제,카드결제,화장실,착한가격 업소,지오브랜드",CONT_000000000500753,지소울,제주특별자치도 제주시 화북일동 1972-5,제주특별자치도 제주시 진남로10길 7,"쇼핑,공방,지오브랜드,기념품,관광기념품,상점/상가",제주를 담는 비누판매와 체험이 가능한 온오프라인 공간,33.520097,126.5677523,63139,064-747-7205 ,,https://place.map.kakao.com/24998609#comment
"화장품,쇼핑,관광기념품,상점/상가",CNTS_000000000022120,제이어스,"제주특별자치도 제주시 이도2동 1176-67 ,805호",제주특별자치도 제주시 중앙로 217,"화장품,쇼핑,관광기념품,상점/상가","(주)제이어스는 (재)제주테크노파크가 전액 출자한 별도법인으로서, (재)제주테크노파크에서 추진하는 브랜드의 사업운영 및 관리를 담당하며 자체 화장품 브랜드인 '제이듀'와 '에코시아'를 보유하고 있습니다.",33.500313,126.53004,63208,064-702-2385,,https://place.map.kakao.com/13296130#comment
"커플,혼자,친구,휴식/힐링,쇼핑,사계절,청년,전시와 행사",CNTS_200000000009178,사슴책방,제주특별자치도 제주시 조천읍 대흘리 1514-1,제주특별자치도 제주시 조천읍 중산간동로 698-71,"커플,혼자,친구,휴식/힐링,쇼핑,사계절,청년,전시와 행사,관광기념품,상점/상가","일러스트 작가가 직접 운영하는 일러스트레이션, 그림 전문 서점",33.4958502,126.6588722,,010-7402-9077,,https://place.map.kakao.com/1528036410#comment
"쇼핑,기념품/소품,갈옷 등",CNTS_200000000014089,저지리약용작물유통센터,제주특별자치도 제주시 한경면 저지리 2114-178,제주특별자치도 제주시 한경면 저지12길 72-16,"쇼핑,럭셔리트래블인제주",갈빛 제주 라이프스타일을 제안하는 갈옷 장인,33.3368939,126.2634373,,064-796-8285,,https://place.map.kakao.com/1213624947#comment
"체험관광,액티비티,쇼핑,도자기,실내",CNTS_200000000008023,도예시선,제주특별자치도 제주시 구좌읍 종달리 930,제주특별자치도 제주시 구좌읍 종달논길 36-18,"체험관광,액티비티,쇼핑,도자기,실내,관광기념품,상점/상가",도자기 공방과 함께 운영하는 도자기 소품 가게 ,33.4880673,126.8804954,,010-5202-6705,,https://place.map.kakao.com/503324529#comment
"쇼핑,기념품",CNTS_000000000022703,바다보석,제주특별자치도 서귀포시 서귀동 480-6,제주특별자치도 서귀포시 중앙로4번길 20,"쇼핑,기념품,관광기념품,상점/상가","바다에서 주운 조개, 소라로 만드는 액세서리",33.2452871,126.5641716,,--,,https://place.map.kakao.com/1411410133#comment
"제주기념품, 제주특산품, 제주쇼핑,공용주차장",CNTS_000000000022362,이제주숍,제주특별자치도 제주시 이도이동 390,제주특별자치도 제주시 연삼로 473,"제주기념품,제주특산품,제주쇼핑,쇼핑,관광기념품,상점/상가",제주특별자치도가 운영하는 제주시내 특산품전시판매장,33.4994261,126.5405872,,064-751-3360,,https://place.map.kakao.com/25863931#comment
"쇼핑,슈퍼마켓,나들가게",CNTS_200000000008081,기영상회,제주특별자치도 제주시 한림읍 협재리 2447-4,제주특별자치도 제주시 한림읍 한림로 345,"쇼핑,슈퍼마켓,나들가게,관광기념품,상점/상가",협재해수욕장 가까이 위치한 바틀샵,33.3934382,126.2400058,,064-796-4715,,https://place.map.kakao.com/15710059#comment
"쇼핑,럭셔리트래블인제주,농수산,토종 제주푸른콩 된장 등",CNTS_200000000014091,푸른콩방주,제주특별자치도 서귀포시 중문동 1226,제주특별자치도 서귀포시 중산간서로 740,"쇼핑,럭셔리트래블인제주",전통과 종 다양성을 지켜야 한다는 사명,33.2632854,126.4361834,,064-738-7778,,https://place.map.kakao.com/1255717436#comment
"특산품,공용주차장,화장실",CNTS_000000000021580,제주시농협농산물직거래센터,제주특별자치도 제주시 일도2동 1,제주특별자치도 제주시 남광로 206,"특산품,쇼핑,관광기념품,상점/상가",농산물을 직거래 할 수 있는 제주농산물직거래 센터,33.502964,126.553696,63306,064-729-1551,,정보없음
"반려동물,반려동물동반,반려동물전용,예스펫존,반려동물동반입장,혼저옵서개,반려동물여행,파충류,귀뚜라미,분양,먹이주기체험,반려동물동반식당카페,공용주차장,화장실,무료 WIFI",CNTS_200000000014297,스마일러펫,제주특별자치도 제주시 애월읍 하귀1리 1138-5,제주특별자치도 제주시 애월읍 상고길 47,"반려동물,반려동물동반입장,파충류,반려동물동반_식당카페","스마일러펫은 악어, 파충류, 열대어, 육지거북을 관람할 수 있고, 토끼, 돼지, 염소 등 당근 주기 체험도 가능한 곳이다.",33.46993,126.4159529,,,,https://place.map.kakao.com/410283209#comment
"쇼핑,기념품,화장실,무료 WIFI,공용주차장",CNTS_200000000007202,바이제주,제주특별자치도 제주시 용담3동 1023-2,제주특별자치도 제주시 서해안로 626,"쇼핑,기념품,관광기념품,상점/상가", 공항근처  기념품 가게이다.,33.5166158,126.5041244,,064-745-1134,,https://place.map.kakao.com/1551616047#comment
"반려동물,반려동물동반,반려동물전용,예스펫존,반려동물동반입장,혼저옵서개,강아지,반려동물여행,반려동물간식,사골닭죽,토마토미트볼,돼지안심카레,화식,양사골,우유껌,말고기육포,꿀꿀칩,반려동물공간(기타)",CNTS_200000000014235,펫마마스푸드,제주특별자치도 서귀포시 대정읍 하모리 634-6,제주특별자치도 서귀포시 대정읍 최남단해안로127번길 13,"반려동물,반려동물동반입장,사골닭죽,토마토미트볼,돼지안심카레,화식,양사골,우유껌,말고기육포,꿀꿀칩,반려동물공간_기타","펫마마스푸드는 청정 제주를 담아 사료와 간식, 베이커리를 핸드메이드로 반려동물의 올바른 먹거리를 만드는 곳이다. ",33.2115793,126.2589391,,0507-1347-4504,,https://place.map.kakao.com/973549087#comment
"혼자,친구,커플,아이,쇼핑,사계절,비누,캔들,소품샵,제주비누,저온숙성비누,힐링비누,월정리소품가게,애월소품가게",CNTS_200000000009193,팰롱팰롱 빛나는,제주특별자치도 제주시 구좌읍 월정리 546,제주특별자치도 제주시 구좌읍 월정3길 58,"혼자,친구,커플,아이,쇼핑,사계절,비누,캔들,소품샵,제주비누,저온숙성비누,힐링비누,월정리소품가게,애월소품가게,관광기념품,상점/상가",제주의 풍경을 비누에 담다,33.5468086,126.7838117,,064-784-5556,,정보없음
"체험,공용주차장,화장실,무료 WIFI",CNTS_000000000022310,다나한한복,제주특별자치도 제주시 도남동 81-10,제주특별자치도 제주시 연삼로 355,"체험,쇼핑,관광기념품,상점/상가","웨딩한복, 혼주한복, 돌잔치 가족한복 등 제주한복대여 및 맞춤 전문점",33.492897,126.53028,63205,064-722-0022,,https://place.map.kakao.com/26561003#comment
"특산품,기념품,",CNTS_000000000022414,곱은과일,제주특별자치도 서귀포시 서귀동 286-5,제주특별자치도 서귀포시 동문로 10,"특산품,기념품,쇼핑,관광기념품,상점/상가",동문시장에 위치한 서귀포 위미농협 감귤 전문 판매장,33.2519,126.56226,63591,010-2834-2242,,https://place.map.kakao.com/880465924#comment
"쇼핑,기념품,관광기념품,상점/상가,현금결제,카드결제",CNTS_000000000022358,당근가게,제주특별자치도 제주시 용담일동 2828-1,제주특별자치도 제주시 서광로5길 4,"쇼핑,기념품,관광기념품,상점/상가",제주도의 상설프리마켓. 제주도의 작가분들이 직접 만드신 제주도만의 소품들을 만날 수 있는곳.,33.5006538,126.5144791,,064-756-3999,,정보없음
"쇼핑,서점,기념품,화장실,아주 어려움",CNTS_000000000020422,소심한책방,제주특별자치도 제주시 구좌읍 종달리 737,제주특별자치도 제주시 구좌읍 종달동길 29-6,"쇼핑,서점,기념품,관광기념품,상점/상가","동쪽 마을 끝자락, 작고 작은 동네 책방",33.49149,126.903114,63364,070-8147-0848,,https://place.map.kakao.com/26407171#comment
기념품,CNTS_000000000022025,우도아이,제주특별자치도 제주시 우도면 연평리 1290-6,제주특별자치도 제주시 우도면 우도해안길 814,"기념품,쇼핑,관광기념품,상점/상가",우도의 아름다운 바다와 풍경을 담은 핸드메이드 기념품샵,33.5033191,126.9556775,,064-784-8689,,https://place.map.kakao.com/330839054#comment
"공방,착한가격 업소",CONT_000000000500739,자연이야기,제주특별자치도 제주시 월랑로 6 21 (노형동),제주특별자치도 제주시 월랑로 6 21 (노형동),"공방,쇼핑,관광기념품,상점/상가","천연비누,천연화장품, 소이캔들 전문 공방",33.489986,126.47918,,010-3389-1388,,정보없음
"기념품,공용주차장,현금결제",CNTS_000000000020318,샘스제주캔들,제주특별자치도 제주시 애월읍 애월리 2533-2,제주특별자치도 제주시 애월읍 애월로1길 26-2,"기념품,쇼핑,관광기념품,상점/상가",애월 리치망고 옆에 위치한 핸드메이드 캔들샵,33.4625986,126.3099425,,010-9869-3309,,https://place.map.kakao.com/107554446#comment
"꽃집,쇼핑,관광기념품,상점/상가,공용주차장,현금결제,카드결제,화장실,유도 및 안내시설,경보 및 피난시설",CNTS_000000000020679,그꽃,제주특별자치도 제주시 구좌읍 월정리 417,제주특별자치도 제주시 구좌읍 월정1길 55,"꽃집,쇼핑,관광기념품,상점/상가",변하지 않는 프리저브드 플라워 전문 꽃집,33.556217,126.79276,,010-9115-7405,,https://place.map.kakao.com/1755403357#comment
"쇼핑,소품,기념품,원데이클래스,화장실,무료 WIFI,현금결제,카드결제,카드결제,현금결제,기념품/소품",CNTS_200000000007247,모이소,제주특별자치도 제주시 연동 262-51,제주특별자치도 제주시 신광로8길 14,"쇼핑,소품,기념품,원데이클래스,관광기념품,상점/상가",제주의 특별함을 간직하고 알리는 모이소 .,33.4871077,126.4886002,,064-745-6454 ,,https://place.map.kakao.com/144933835#comment
"쇼핑,기념품",CNTS_000000000022039,더아일랜더,제주특별자치도 제주시 일도1동 1251,제주특별자치도 제주시 중앙로7길 31 102호,"쇼핑,기념품,관광기념품,상점/상가",중앙로에 자리한 제주도아트-기념품 매장,33.5149044,126.5281048,,0507-1317-5562,,https://place.map.kakao.com/22304721#comment
특산품,CNTS_000000000021338,돌코롱,제주특별자치도 서귀포시 대정읍 가파리 588,제주특별자치도 서귀포시 대정읍 마라로 41,"특산품,쇼핑,관광기념품,상점/상가",마라도에서 정통 한과를 제조 판매하는 돌코롱입니다.,33.119938,126.26721,63515,064-792-6337,,https://place.map.kakao.com/1624187079#comment
"카페,쇼핑,라탄,음료, 라탄소품",CNTS_200000000007338,옥수카페,제주특별자치도 제주시 애월읍 소길리 652-1,제주특별자치도 제주시 애월읍 소길1길 19,"카페,쇼핑,라탄,관광기념품,상점/상가",조용한 마을 속 돌담길을 지나 들어가면 라탄 소품을 판매하는 골목 카페인 옥수카페,33.4194584,126.383518,,010-5520-6516,,https://place.map.kakao.com/481425144#comment
"쇼핑,기념품,공용주차장",CNTS_000000000022047,베리제주,제주특별자치도 제주시 애월읍 고내리 1168,제주특별자치도 제주시 애월읍 고내로7길 45-14,"쇼핑,기념품,관광기념품,상점/상가","제주를 테마로 한 디자인문화상품 수백가지 뿐만 아니라 제주 농수산물로 만든 식품류, 제주에 관련된 서적, 제주 뮤지션들의 음반도 한자리에",33.4665659,126.3364409,,064-746-7520,,https://place.map.kakao.com/459401271#comment
"쇼핑,기념품,,현금결제",CNTS_000000000021003,언타이틀보틀샵,제주특별자치도 서귀포시 성산읍 오조리 747-4,제주특별자치도 서귀포시 성산읍 오조로 93,"쇼핑,기념품,관광기념품,상점/상가",일상 더하기 위트 = B일상 잡화점,33.462036,126.91461,63639,--,,https://place.map.kakao.com/912067075#comment
"특산품,체험관광,6차산업,쇼핑,관광기념품,상점/상가,착한가격 업소",CONT_000000000500746,제주민속식품,제주특별자치도 제주시 구좌읍 송당리 2744-2,제주특별자치도 제주시 구좌읍 번영로 2178,"특산품,체험관광,6차산업,쇼핑,관광기념품,상점/상가","꿩엿, 전복엿 등 다양한 제주 건강식품 제조 및 판매
",33.4281,126.75104,63355,064-782-1500,,https://place.map.kakao.com/19090194#comment
"쇼핑,기념품,,현금결제,카드결제,화장실,무료 WIFI",CNTS_000000000020717,산호상점,제주특별자치도 제주시 구좌읍 김녕리 2464,제주특별자치도 제주시 구좌읍 김녕로2길 20,"쇼핑,기념품,관광기념품,상점/상가",산호상점에서 만들어낸 제주스러움,33.553776,126.74344,63357,064-782-7320,,정보없음
"특산품,갈치,오메기떡,착한가격 업소",CONT_000000000500730,삼다닷컴,제주특별자치도 제주시 도남동 834,제주시 연삼로 295-1,"특산품,갈치,오메기떡,쇼핑,관광기념품,상점/상가",No.1 제주농수축산 전문 쇼핑몰 직매장,33.492626,126.52447,,064-752-0001,,https://place.map.kakao.com/17758050#comment
"쇼핑,기념품,공방,공용주차장,화장실",CNTS_000000000020310,뷰티풀제주,제주특별자치도 제주시 용담3동 519-2,제주특별자치도 제주시 용마로4길 5-3,"쇼핑,기념품,공방,관광기념품,상점/상가",예쁘고 아기자기한 도자기 공예품 샵,33.5158997,126.5058954,63150,064-725-8246,,https://place.map.kakao.com/9896714#comment
"쇼핑, 친환경",CNTS_000000000022749,바이올가 서귀포영어마을점,제주특별자치도 서귀포시 대정읍 보성리 2372-2,제주특별자치도 서귀포시 대정읍 에듀시티로 40,"쇼핑,친환경,관광기념품,상점/상가","채소, 과일, 양곡, 가공식품등을 판매하는 친환경식품판매점",33.2582832,126.2706274,,064-792-6242,,https://place.map.kakao.com/1273346864#comment
"휴식/힐링,공용주차장,현금결제,카드결제,화장실,무료 WIFI,카드결제,현금결제,,,쉬움,농수산,기념품/소품,수제초콜릿,가능",CNTS_200000000011593,미카의달콤한작업실,제주특별자치도 서귀포시 안덕면 사계리 2294-27,제주특별자치도 서귀포시 안덕면 사계남로84번길 4,"휴식/힐링,쇼핑,관광기념품,상점/상가"," 제주도의 자연을 달콤하게 제작, 판매하는  제주여행선물로 인기있는 수제초콜릿가게",33.2267425,126.2990068,63528,010-2723-0508,,https://place.map.kakao.com/1246473760#comment
"와이너리,양조장,와인,쇼핑,관광기념품,상점/상가,공용주차장,현금결제,카드결제,화장실,무료 WIFI,흡연구역,카드결제,현금결제,,,허니와인,가능",CNTS_200000000008160,제주허니와인,제주특별자치도 제주시 애월읍 하가리 257-6 ,제주특별자치도 제주시 애월읍 용하길 42 (하가리) ,"와이너리,양조장,와인,쇼핑,관광기념품,상점/상가",우리나라 유일한 과일벌꿀주 제주허니와인 와이너리,33.443341,126.3674866,915-695,010-9818-7933,,https://place.map.kakao.com/495943751#comment
"강연욱 산진관,사진,공용주차장,현금결제,카드결제,화장실,무료 WIFI,카드결제,현금결제,탐나는전,영어,,쉬움,",CNTS_200000000014066,강연욱 사진관,제주특별자치도 제주시 애월읍 하가리 1415 강연욱 사진관,제주특별자치도 제주시 애월읍 하가로 146-9 (하가리) 강연욱 사진관,"강연욱 산진관,사진",애월에 위치한 작은 아날로그 필름 사진관이다,,,63036,010-8735-4006,,https://place.map.kakao.com/1183523812#comment
"기념품,공방,원데이클래스,라탄,공용주차장,현금결제,카드결제,화장실,무료 WIFI,편의점,카드결제,현금결제,,,기념품/소품,,가능",CNTS_200000000013992,안온점,제주특별자치도 제주시 한림읍 옹포리 608 2층,제주특별자치도 제주시 한림읍 한림로 492 (옹포리) 2층,"기념품,공방,원데이클래스,라탄",빈티지 인테리어 소품 판매와 라탄공방 원데이 클래스 및 정규 클래스가 가능한 곳,33.4031019,126.2522613,63012,010-6657-7444,,https://place.map.kakao.com/737606520#comment
"커플,친구,휴식/힐링,공용주차장,현금결제,카드결제,화장실,무료 WIFI,흡연구역,편의점,카드결제,현금결제,,jejugeneralstore comein,농수산,기념품/소품,팩/문구,썬캐쳐,먹거리 기타등등,가능",CNTS_200000000011137,펠롱잡화점,제주특별자치도 제주시 구좌읍 평대리 3346-12,제주특별자치도 제주시 구좌읍 세평항로 45,"커플,친구,휴식/힐링,쇼핑,관광기념품,상점/상가","제주도소품샵중에 최신소품샵 제주기념품을 대표하는 모든것들,펠롱에서만드는 핸드메이드 소품들이 가득한 이 곳",33.5273357,126.8550887,-,010-6597-3669,,https://place.map.kakao.com/455349964#comment
"쇼핑,무료 WIFI,공용주차장,카드결제,현금결제",CNTS_200000000012453,소소한담,제주특별자치도 제주시 애월읍 신엄리 1280-16,제주특별자치도 제주시 애월읍 일주서로 6691,"쇼핑,관광기념품,상점/상가","제주 기념품, 먹거리, 전통주, 와인, 각종 제주 소품, 커피와인 만들기 등의 구매 및 체험이 가능",33.4714955,126.3670126,,010-5090-0417,,https://place.map.kakao.com/233162302#comment
"과일청, 수제청, 유기농, 안덕, 기념품,공용주차장,현금결제,카드결제,화장실,무료 WIFI,카드결제,현금결제,,영어,,브랜드,수제청/과즐,가능",CNTS_200000000010377,나무와열매 감귤체험,제주특별자치도 서귀포시 안덕면 덕수리 2180,제주특별자치도 서귀포시 안덕면 덕수동로25번길 42-8,"과일청,수제청,유기농,안덕,기념품,쇼핑,관광기념품,상점/상가",제주과일을 주재료로 안심하고 드실수 있는 건강하고 맛있는 과일청을 저온숙성 방식으로 만들고 판매하고 있습니다,33.2582943,126.3082433,-,064-792-2180,,정보없음
"쇼핑,연필,기념품,공용주차장,현금결제,카드결제,화장실,무료 WIFI,편의점,음료대,카드결제,현금결제,계좌이체 가능,,단독접근가능,쉬움,팩/문구,연필책,필사,컬러북,가능",CNTS_200000000007913,연필가게,제주특별자치도 서귀포시 남원읍 태흥리 541-1 ,"제주특별자치도 서귀포시 남원읍 태위로 929 (태흥리, 뽀글이미용실) ","쇼핑,연필,기념품,관광기념품,상점/상가,무장애관광",세계 각국의 연필과 문구를 탐험하는 곳,33.281671,126.7344787,945-699,010-6496-4929,,https://place.map.kakao.com/1974620820#comment
"쇼핑,공용주차장,현금결제,카드결제,화장실,무료 WIFI,카드결제,현금결제,탐나는전,,기념품/소품,팩/문구,브랜드,엽서, 메모지, 스티커, 손거울, 머그컵, 코스터, 캔버스포스터, 패브릭포스터, 아트프린트,가능",CNTS_200000000013588,손끝에서,제주특별자치도 제주시 구좌읍 세화리 1521-13,제주특별자치도 제주시 구좌읍 구좌로 33-11,"쇼핑,문화관광,기념품","소속 아티스트의 사진작품을 활용하여 아트상품을 제작, 사진을 구매하는 경험을 선물한다",33.5239835,126.8548993,63361,010-7669-8515,,https://place.map.kakao.com/420157757#comment
"전통주,양조장,공용주차장,현금결제,카드결제,화장실,무료 WIFI,흡연구역,경보 및 피난시설,카드결제,현금결제,,영어,중국어,일본어,,단독접근가능,단차없음,저상버스 접근 가능,장애인 전용 주차장,쉬움,농수산,기념품/소품,전통주,가능",CNTS_200000000014006,왕지케양조장,제주특별자치도 제주시 한경면 고산리 2885-1 1층,제주특별자치도 제주시 한경면 고산로2길 22-13 (고산리) 1층,"전통주,양조장,무장애관광",제주도 한경면 고산리에 위치한 지역특산주 제조업체,33.302557,126.1825261,63008,064-773-0988,,https://place.map.kakao.com/1177843047#comment
"소품샵,고양이,고양이소품,고양이용품,쇼핑,공용주차장,현금결제,카드결제,화장실,무료 WIFI,카드결제,현금결제,카카오페이, 계좌이체,영어,일본어,einbissen Deutsch,단차없음,쉬움,기념품/소품,팩/문구,브랜드,고양이작가소품, 고양이가 들어간 모든 제품,가능",CNTS_200000000009456,게른,제주특별자치도 서귀포시 서귀동 323-19 ,제주특별자치도 서귀포시 중정로 1 ,"소품샵,쇼핑,관광기념품,상점/상가,무장애관광",고양이에 대한 모든 것을 취급하는 고양이잡화점,33.2476943,126.5566855,-,010-4695-7731,,https://place.map.kakao.com/580462714#comment
"쇼핑, 천연염색, 중문,공용주차장,현금결제,카드결제,화장실,무료 WIFI,흡연구역,편의점,음료대,유도 및 안내시설,경보 및 피난시설,카드결제,현금결제,,영어,중국어,일본어,,단독접근가능,단차없음,청각장애인 접근성,시각장애인 접근성,저상버스 접근 가능,장애인 전용 리프트,장애인 화장실,승강기,장애인 전용 주차장,수동 휠체어 대여 가능,쉬움,기념품/소품,브랜드,천연염색 스카프, 의류, 가방, 모자, 악세사리,가능",CNTS_200000000010434,탐라동주,제주특별자치도 서귀포시 중문동 2700,제주특별자치도 서귀포시 중문관광로 224,"쇼핑,천연염색,중문,관광기념품,상점/상가,무장애관광",핸드메이드로 만든 모던한 천연염색 작품 매장,33.2412921,126.424492,-,064-738-1337,,정보없음
"부모,커플,친구,아이,쇼핑,사진인화,기념품,공용주차장,현금결제,카드결제,화장실,무료 WIFI,카드결제,현금결제,,영어,,단독접근가능,단차없음,장애인 화장실,쉬움,기념품/소품,,가능",CNTS_200000000009006,구름두리,제주특별자치도 서귀포시 서귀동 276-19 1층 구름두리,제주특별자치도 서귀포시 중정로61번길 20 1층 구름두리,"부모,커플,친구,아이,쇼핑,사진인화,기념품,관광기념품,상점/상가,무장애관광",나무액자에 사진을 인쇄해주는 곳,33.2495494,126.5631147,842-697,010-6782-8270,,https://place.map.kakao.com/12354187#comment
"쇼핑,서점,기념품",CNTS_000000000021057,만춘서점,제주특별자치도 제주시 조천읍 함덕리 272-35,제주특별자치도 제주시 조천읍 함덕로 9,"쇼핑,서점,기념품,관광기념품,상점/상가","좋은 책과 좋은 음악이 있는, 작지만 특별한 책방",33.54071,126.67343,63333,064-784-6137,,https://place.map.kakao.com/1859768130#comment
기념품,CNTS_000000000022474,갈중이,제주특별자치도 서귀포시 안덕면 사계리 113,제주특별자치도 서귀포시 안덕면 사계남로216번길 24-61,"기념품,쇼핑,관광기념품,상점/상가",제주전통 갈옷 전문 의류매장,33.235085,126.31367,63528,--,,https://place.map.kakao.com/19100061#comment
"천혜향, 한라봉, 레드향,특산품,현금결제,카드결제,아주 어려움",CNTS_000000000020147,현승이네농장,제주특별자치도 제주시 애월읍 신엄리 16,제주특별자치도 제주시 애월읍 신엄리 16,"천혜향,한라봉,레드향,특산품,쇼핑,관광기념품,상점/상가",애월 더럭분교 인근 위치한 귤농장.,33.463615,126.37887,,010-9289-1285,,https://place.map.kakao.com/662777136#comment
"전통시장,공용주차장,현금결제,카드결제,화장실,착한가격 업소",CONT_000000000500733,서문공설시장,제주특별자치도 제주시 용담1동 135-9,제주특별자치도 제주시 서문로4길 13-2,"전통시장,쇼핑,상점/상가,관광기념품","제주의 마장동이라 불리우는 정육, 축산 전문 상설시장",33.511383,126.517975,63154,064-758-8387,,https://place.map.kakao.com/18526097#comment
"쇼핑,공용주차장,현금결제,카드결제,화장실,무료 WIFI,흡연구역,카드결제,현금결제,,,브랜드,,가능",CNTS_200000000011557,보미다,"제주특별자치도 서귀포시 법환동 326-4, 2층 201호","제주특별자치도 서귀포시 이어도로 936-1, 2층 201호","쇼핑,관광기념품,상점/상가","보미다(bomida) : ‘낡다,녹슬다’의 제주방언 제주 서귀포에 있는 빈티지 토탈 의류전문샵",33.2384705,126.5143114,63573,010-5008-0064,,https://place.map.kakao.com/1871956496#comment
"책, 서점,책방",CNTS_200000000007633,북타임,제주특별자치도 서귀포시 서홍동 397-130 2층,제주특별자치도 서귀포시 중앙로 109 2층,"책,서점,책방,쇼핑,관광기념품,상점/상가",서귀포 중앙로터리 근처에 있는 있는 책방,33.2811103,126.540806,,064-763-5511,,https://place.map.kakao.com/26917048#comment
"특산품,착한가격 업소",CONT_000000000500740,제일토산품,제주특별자치도 제주시 관덕로24,제주특별자치도 제주시 관덕로 22-1,"특산품,쇼핑,관광기념품,상점/상가",관덕정과 지하상가 인근에 위치한 관광특산품점,33.512978,126.52185,63168,064-753-7319,,https://place.map.kakao.com/23109108#comment
"쇼핑,소품,그릇,주방용품,공용주차장",CNTS_200000000007955,아워키친,제주특별자치도 제주시 노형동 3796-10,제주특별자치도 제주시 노형4길 23,"쇼핑,소품,그릇,주방용품,관광기념품,상점/상가",제주도심 속 저렴한 리빙소품샵,33.483098,126.4772312,,070-8900-0200,,https://place.map.kakao.com/27600578#comment
"전통시장,착한가격 업소",CONT_000000000500728,제주보성시장,제주특별자치도 제주시 이도1동 1289-5,제주특별자치도 제주시 동광로1길 32,"전통시장,쇼핑,상점/상가,관광기념품",제주 원도심 속 전통 순대로 유명한 상설시장,33.503296,126.527916,63197,064-753-2085,,https://place.map.kakao.com/18525725#comment
"웰니스,만남,즐김,치유,체험,가족,쇼핑,관광기념품,상점/상가",CNTS_200000000007938,폴개협동조합,제주특별자치도 서귀포시 남원읍 남원리 493,제주특별자치도 서귀포시 남원읍 원님서로326번길 38-51,"웰니스,만남,즐김,치유,체험,가족,쇼핑,관광기념품,상점/상가","유기농 블루베리, 감귤, 인형체험 등을 할 수 있는 곳",33.3031815,126.7070102,,064-764-0116,,https://place.map.kakao.com/278230828#comment
"체험관광,쇼핑",CNTS_200000000012266,대정오일시장,제주특별자치도 서귀포시 대정읍 하모리 1089-15,제주특별자치도 서귀포시 대정읍 신영로36번길 65,"체험관광,쇼핑,전통시장,상점/상가,오일장,관광기념품",제주도 서부 지역에서 가장 큰 오일시장,33.220516,126.2483125,,,,https://place.map.kakao.com/18525728#comment
"쇼핑,플리마켓,기념품,관광기념품,상점/상가",CNTS_000000000021442,벨롱장,제주시 구좌읍 세화리 1500-63,제주특별자치도 제주시 구좌읍 세화1길 20-8,"쇼핑,플리마켓,기념품,관광기념품,상점/상가","세화리, 아름다운 바다 옆 벨롱장",33.527386,126.85676,63361,--,,정보없음
"기념품,공용주차장,아주 어려움",CNTS_000000000021075,여름문구사,제주특별자치도 제주시 구좌읍 세화리 1397-6,제주특별자치도 제주시 구좌읍 구좌로 77,"기념품,쇼핑,관광기념품,상점/상가",제주여행을 특별하게 기념할 수 있는 아기자기한 추억 보관소,33.5214,126.85893,63361,--,,https://place.map.kakao.com/27068214#comment
"쇼핑,라탄,원데이클래스,라탄 소품",CNTS_200000000007333,더솜라탄,제주특별자치도 제주시 노형동 3808-13,제주특별자치도 제주시 노형1길 8-9,"쇼핑,라탄,원데이클래스,관광기념품,상점/상가","제주 시내에 있는 더솜라탄은 잔잔한 분위기를 가지고 있는 가게이다. 공방을 함께 운영하고 있어 라탄을 직접 배우기에도 알맞다. 8월부터는 다양한 코스의 수업도 진행하는데, 라탄을 처음 접하는 사람들을 위한 초급반부터 중급반까지 자신의 수준에 맞는 라탄 수업을 들을 수 있다.",33.483098,126.4772312,,010-8987-6464,,https://place.map.kakao.com/2018003987#comment
"기념품, 소품",CNTS_200000000008041,제주i,제주특별자치도 서귀포시 성산읍 성산리 296-10,제주특별자치도 서귀포시 성산읍 일출로288번길 8,"기념품,소품,쇼핑,관광기념품,상점/상가","성산읍에 위치한 핸드메이드 소품점
",33.4637648,126.9356511,,064-784-8689,,https://place.map.kakao.com/1207539108#comment
"쇼핑,서점,기념품,현금결제,카드결제,화장실,아주 어려움",CNTS_000000000020266,딜다책방,제주특별자치도 제주시 이도1동 1691-16,제주특별자치도 제주시 삼성로1길 1,"쇼핑,서점,기념품,관광기념품,상점/상가",우리의 삶과 문화를 ‘딜다보다’,33.505493,126.527405,63194,064-723-4441,,정보없음
"부모,커플,혼자,친구,쇼핑,공용주차장,현금결제,카드결제,화장실,무료 WIFI,흡연구역,편의점,유도 및 안내시설,경보 및 피난시설,카드결제,현금결제,,영어,중국어,,단독접근가능,청각장애인 접근성,시각장애인 접근성,장애인 화장실,승강기,장애인 전용 주차장,쉬움,기념품/소품,브랜드,선글라스, 백, 여성의류, 남성의류",CNTS_200000000011393,HAN컬렉션,제주특별자치도 제주시 노형동 925,제주특별자치도 제주시 노연로 12,"부모,커플,혼자,친구,쇼핑,관광기념품,상점/상가,무장애관광",국내외에서 가장 주목받고 있는 한국 패션 디자이너 200명의 작품을 만날 수 있는 제주 최대 쇼핑공간이다.,33.4852786,126.4814609,63082,064-907-1234,,https://place.map.kakao.com/1761714561#comment
"쇼핑,소품,핸드메이드",CNTS_200000000008040,수풀,제주특별자치도 제주시 한림읍 대림리 1803-6 2층,제주특별자치도 제주시 한림읍 한수풀로 36 2층,"쇼핑,소품,핸드메이드,관광기념품,상점/상가","핸드메이드 소품들을 판매하고 있는 아기자기한 소품 숍
",33.4178654,126.2667152,,010-3908-7204,,https://place.map.kakao.com/752459708#comment
"쇼핑,실내,빈티지,협재해수욕장",CNTS_200000000008027,서쪽가게,제주특별자치도 제주시 한림읍 협재리 1751-6,제주특별자치도 제주시 한림읍 한림로 336,"쇼핑,실내,빈티지,협재해수욕장,관광기념품,상점/상가","제주 협재해수욕장 인근에 위치한 빈티지 소품 숍
",33.3933782,126.240665,,064-796-8178,,https://place.map.kakao.com/2095299060#comment
"쇼핑,공용주차장,카드결제,화장실,카드결제,현금결제,,,",CNTS_200000000012093,신세계사이먼 제주 프리미엄 전문점,"제주특별자치도 서귀포시 안덕면 서광리 산 24 신세계사이먼 제주 프리미엄 전문점 G층, B1층","제주특별자치도 서귀포시 안덕면 신화역사로304번길 38 신세계사이먼 제주 프리미엄 전문점 G층, B1층","쇼핑,관광기념품,상점/상가",제주 여행과 라이프에 '프리미엄 쇼핑'을 더하는 제주 프리미엄 전문점,33.3017501,126.3206458,63522,02-1644-4001,,https://place.map.kakao.com/1034468162#comment
"쇼핑,관광기념품,상점/상가,착한가격 업소",CONT_000000000500722,라온명품관,제주특별자치도 제주시 한림읍 협재리 2838,제주특별자치도 제주시 한림읍 금능남로 127,"쇼핑,관광기념품,상점/상가",제주시 한림읍에 위치한 명품쇼핑관,33.3760556,126.2441268,63015,064-795-3200,,https://place.map.kakao.com/26979403#comment
"쇼핑,농수산,과즐 등",CNTS_200000000014093,도솔촌,제주특별자치도 서귀포시 하효동 1214-2,제주특별자치도 서귀포시 칠십리로 647-13,"쇼핑,럭셔리트래블인제주",한번 맛보면 멈출 수 없는 감귤 과즐,33.2659014,126.6008636,,010-4696-4536,,https://place.map.kakao.com/12166518#comment
"특산품,쇼핑,관광기념품,상점/상가,공용주차장,현금결제,카드결제,착한가격 업소",CONT_000000000500736,야호농수산,제주특별자치도 제주시 용해로 112,제주특별자치도 제주시 용해로 112,"특산품,쇼핑,관광기념품,상점/상가",제주공항 인근에 위치한 제주 농수산물 판매점,33.507515,126.504684,,064-725-1010,,https://place.map.kakao.com/18576393#comment
"공방,기념품,",CNTS_000000000022711,다시방프로젝트,제주특별자치도 제주시 조천읍 북촌리 740-16,제주특별자치도 제주시 조천읍 북촌12길 28,"공방,기념품,쇼핑,관광기념품,상점/상가","금속공예공방, 직접만드는 래터링반지",33.5467278,126.6986061,,064-901-2929,,정보없음
특산품,CNTS_000000000018932,하나로마트 구좌농협 우도점,제주특별자치도 제주시 우도면 연평리 1404-8,제주특별자치도 제주시 우도면 우도로 178,"특산품,쇼핑,관광기념품,상점/상가",우도에 유일한 하나로마트,33.508297,126.95398,,064-783-0008,,https://place.map.kakao.com/21476962#comment
쇼핑,CNTS_200000000014095,제주점토도예연구소,제주특별자치도 제주시 구좌읍 행원리 1260-16,제주특별자치도 제주시 구좌읍 행원로2길 28,"쇼핑,럭셔리트래블인제주","김경찬 작가가 안내하는 또 다른 제주, 옹기",33.5501938,126.8039367,,010-2124-1598,,https://place.map.kakao.com/1254135407#comment
"쇼핑,기념품, 특산품,공용주차장,현금결제,카드결제,화장실,무료 WIFI,음료대,유도 및 안내시설,카드결제,현금결제,,영어,,단차없음,승강기,쉬움,농수산,기념품/소품,팩/문구,브랜드,오메기 떡,흑돼지고기, 주류, 수산물, 초콜렛 등,가능",CNTS_200000000008531,선물고팡,제주특별자치도 제주시 용담이동 2745-1,제주특별자치도 제주시 월성로 15,"쇼핑,기념품,특산품,관광기념품,상점/상가,무장애관광",공항까지 무료셔틀을 지원하는 공항 인근 기념품숍. ,33.5029868,126.5049379,-,064-901-6441,,https://place.map.kakao.com/2058181539#comment
"하나로마트,서귀포시내,음식,식당,공용주차장,화장실,무료 WIFI,흡연구역,엘리베이터,장애인 전용 주차장,장애인 화장실,농수산",CNTS_200000000012742,서귀포농협하나로마트,제주특별자치도 서귀포시 토평동 880-1,제주특별자치도 서귀포시 516로 40,"하나로마트,서귀포시내,음식,식당,무장애관광",서귀포시 인근 외곽에 위치한 하나로마트로 도내에서는 큰 규모에 꼽히며 신선한 과채류와 다양한 부위의 흑돼지를 구매할 수 있으며 수산코너에서는 활어회도 구매할 수 있다.,33.257487,126.5813173,,064-767-5101,,https://place.map.kakao.com/1329491686#comment
"쇼핑,기념품,",CNTS_000000000022699,달리센트,제주특별자치도 제주시 구좌읍 종달리 1991,제주특별자치도 제주시 구좌읍 종달리 1991,"쇼핑,기념품,관광기념품,상점/상가",조용한 밭뙈기 속 놀랄만한 컬렉샵의 발견,33.490383,126.89869,,010-3268-5247,,https://place.map.kakao.com/1754063188#comment
"전통시장,공용주차장,화장실,아주 어려움,착한가격 업소",CONT_000000000500755,표선오일시장,제주특별자치도 서귀포시 표선면 표선리 1001-1,제주특별자치도 서귀포시 표선면 표선동서로 203-1,"전통시장,쇼핑,상점/상가,오일장,관광기념품",남쪽 사람들의 정겨움을 느낄 수 있는 오일시장,33.32252,126.83022,63629,064-760-4471,,https://place.map.kakao.com/18525430#comment
"전통시장,쇼핑,상점/상가,오일장,관광기념품",CONT_000000000500714,고성오일시장,제주특별자치도 서귀포시 성산읍 고성리 1180-34,제주특별자치도 서귀포시 성산읍 고성오조로 93,"전통시장,쇼핑,상점/상가,오일장,관광기념품",옛 장터 분위기를 지닌 전통시장,33.4517759,126.912796,,064-760-4281,,https://place.map.kakao.com/11696879#comment
"전통시장,공용주차장,착한가격 업소",CONT_000000000500758,한림매일시장,제주특별자치도 제주시 한림읍 한림리 1314-2,제주특별자치도 제주시 한림읍 한림로 687,"전통시장,쇼핑,상점/상가,관광기념품",옛 재래시장의 면모를 보여주는 한림매일시장,33.416092,126.26494,63031,064-796-5209,,https://place.map.kakao.com/12721347#comment
"쇼핑,농수산,오메기술 등",CNTS_200000000014101,술 다끄는 집,제주특별자치도 서귀포시 표선면 성읍리 883,제주특별자치도 서귀포시 표선면 성읍정의현로56번길 5,"쇼핑,럭셔리트래블인제주",전통 오메기술의 원형을 지키는 술도가,33.3878766,126.8016869,,010-6640-1559,,https://place.map.kakao.com/246134076#comment
"쇼핑,농수산,고소리술 등",CNTS_200000000014102,제주술익는집,제주특별자치도 서귀포시 표선면 성읍리 1410-1,제주특별자치도 서귀포시 표선면 중산간동로 4726,"쇼핑,럭셔리트래블인제주",30년째 고소리술의 물방울을 살피는 명인,33.3849016,126.79391,,064-787-5046,,https://place.map.kakao.com/1240625494#comment
"쇼핑,전통시장,,공용주차장,아주 어려움,착한가격 업소",CONT_000000000500732,서귀포향토오일시장,제주특별자치도 서귀포시 동홍동 779-1,제주특별자치도 서귀포시 중산간동로7894번길 18-5,"쇼핑,전통시장,상점/상가,오일장,관광기념품",많은 방문객으로 북적이는 도심 속 장터,33.2671561,126.5733776,63579,064-763-0965,,https://place.map.kakao.com/13324524#comment
"서점, 책,첵방,소품샵",CNTS_200000000007632,라이킷,제주특별자치도 제주시 일도1동 1215 1층,제주특별자치도 제주시 칠성로길 42-2 1층,"서점,책,첵방,소품샵,쇼핑,관광기념품,상점/상가",제주시 원도심 칠성로에 있는 독립서점,33.5141773,126.5273917,, 010-3325-8796,,https://place.map.kakao.com/123014498#comment
"쇼핑,면세점,기념품,공용주차장,현금결제,카드결제,화장실,편의점,유도 및 안내시설,경보 및 피난시설,단독접근가능,수동 휠체어 대여 가능,어려움",CONT_000000000500741,제주관광공사 중문면세점  ,제주특별자치도 서귀포시 중문관광로 224(중문동) 제주국제컨벤션센터 1F,제주특별자치도 서귀포시 중문관광로 224(중문동) 제주국제컨벤션센터 1F,"쇼핑,면세점,기념품,관광기념품,상점/상가,dutyfreeshop,무장애관광",제주특별자치도 출자 지방공기업인 제주관광공사에서 운영하는 내국인 전용 면세점,33.237755,126.425064,,064-780-7700,,https://place.map.kakao.com/9405562#comment
"캔들,기념품,공용주차장,현금결제,카드결제,화장실,무료 WIFI,카드결제,현금결제,무통장입금, 카카오톡 QR코드 진행중,영어,,아주 어려움,기념품/소품,,가능",CNTS_200000000007217,윌로우씨 ,제주특별자치도 제주시 일도1동 1148-2 동문시장(주) 2층 윌로우씨 제주 캔들공방,제주특별자치도 제주시 동문로 16 (일도1동) 동문시장(주) 2층 윌로우씨 제주 캔들공방,"캔들,기념품,쇼핑,관광기념품,상점/상가","제주스러운 기념품으로 캔들,방향제를 판매하는 곳이다.",33.555804,126.79575,836-690,010-6524-6004,,https://place.map.kakao.com/265447046#comment
"전통시장,공용주차장,단독접근가능,단차없음,장애인 화장실,장애인 전용 주차장,어려움",CNTS_000000000021519,세화해녀민속오일시장,제주특별자치도 제주시 구좌읍 세화리,제주특별자치도 제주시 구좌읍 해맞이해안로 1412,"전통시장,쇼핑,상점/상가,오일장,관광기념품,무장애관광",세화해변을 낀 동쪽 대표 오일시장,33.526073,126.85757,63361,064-782-0520,,정보없음
"#상설시장 #제주시 #동문수산시장,전통시장,쇼핑,상점/상가,관광기념품,착한가격 업소",CONT_000000000500744,동문수산시장,제주특별자치도 제주시 이도일동 1349-1,제주특별자치도 제주시 관덕로 64-1,"#상설시장 #제주시 #동문수산시장,전통시장,쇼핑,상점/상가,관광기념품",제주 최대 규모의 수산물 전문시장,33.512669,126.5262495,,064-722-3284,,https://place.map.kakao.com/18525809#comment
"쇼핑,서점,기념품,아주 어려움",CNTS_000000000021009,라바북스,제주특별자치도 서귀포시 남원읍 위미리 3192-5 1층,제주특별자치도 서귀포시 남원읍 태위로 87 1층,"쇼핑,서점,기념품,관광기념품,상점/상가",제주 자연 속 감성을 찾을 수 있는 곳,33.274437,126.6569,63611,010-4416-0444,,https://place.map.kakao.com/26875902#comment
"의류, 소품, 빈티지",CNTS_200000000008021,에브리바디빈티지,제주특별자치도 제주시 이도1동 1493-1,제주특별자치도 제주시 관덕로8길 31,"의류,소품,빈티지,쇼핑,관광기념품,상점/상가",중앙로 부근에 위치한 빈티지 가게,33.5105024,126.5234417,,064-723-0907,,https://place.map.kakao.com/902160505#comment
"특산품,착한가격 업소",CONT_000000000500729,평화의마을,제주특별자치도 서귀포시 대정읍 구억리 308,제주특별자치도 서귀포시 대정읍 중산간서로 2195-12,"특산품,쇼핑,관광기념품,상점/상가",제주 무항생흑돼지로 수제소시지와 햄을 생산하는 곳,33.2790874,126.292444,,064-794-6277,,https://place.map.kakao.com/8917054#comment
"전통시장,기념품, 5일장, 오일장,공용주차장,화장실,아주 어려움,착한가격 업소",CONT_000000000500752,중문향토오일시장,제주특별자치도 서귀포시 중문동 2123-1,제주특별자치도 서귀포시 천제연로188번길 12,"전통시장,기념품,5일장,오일장,쇼핑,상점/상가,관광기념품",소박함과 정겨움을 느낄 수 있는 장터,33.2508555,126.4242065,63546, 064-760-2633,,https://place.map.kakao.com/20582995#comment
"전통시장,상점/상가,쇼핑,관광기념품",CNTS_200000000012176,제주 중앙지하상가,제주특별자치도 제주시 일도일동 1425-3,제주특별자치도 제주시 중앙로 지하 60,"전통시장,상점/상가,쇼핑,관광기념품",제주도 유일한 지하상가이자 쇼핑 중심지,33.5131743,126.5246997,,064-752-8776,,https://place.map.kakao.com/18526098#comment
"전통시장,공용주차장,아주 어려움",CNTS_000000000021182,함덕민속오일시장,제주특별자치도 제주시 조천읍 함덕리 972-7,제주특별자치도 제주시 조천읍 함덕16길 15-13,"전통시장,쇼핑,상점/상가,오일장,관광기념품",수수한 매력을 지니고 있는 전통시장,33.540173,126.66804,63333,064-783-8559,,정보없음
"전통시장,공용주차장,착한가격 업소",CONT_000000000500724,모슬포중앙시장,제주특별자치도 서귀포시 대정읍 하모리 841-32,제주특별자치도 서귀포시 대정읍 영서중로 3,"전통시장,쇼핑,상점/상가,관광기념품",서귀포시 대정읍 중심지에 있는 전통시장,33.22193,126.25479,63510,064-794-2586,,https://place.map.kakao.com/18526100#comment
"쇼핑,기념품,관광기념품,상점/상가,공용주차장,현금결제,카드결제,화장실,아주 어려움,착한가격 업소",CONT_000000000500750,제주칠성로상가,제주특별자치도 제주시 일도1동 1476-20,제주특별자치도 제주시 관덕로13길 12,"쇼핑,기념품,관광기념품,상점/상가",역사 깊은 제주의 문화와 쇼핑의 거리,33.514088,126.526215,63277,064-721-0827,,https://place.map.kakao.com/27175880#comment
"카카오프렌즈, 카페,기념품",CNTS_200000000008735,카카오본사,제주특별자치도 제주시 영평동 2181,제주특별자치도 제주시 첨단로 242,"카카오프렌즈,카페,기념품,쇼핑,관광기념품,상점/상가",귀여운 카카오프렌즈 캐릭터 상품을 만나볼 수 있는 복합문화공간. ,33.4500257,126.5733138,, 02-6718-1679,,https://place.map.kakao.com/18059921#comment
"사진관,흑백사진,가족사진,우정스냅,스냅사진,공용주차장,현금결제,카드결제,화장실,무료 WIFI,편의점,음료대,유도 및 안내시설,경보 및 피난시설,카드결제,현금결제,,,흑백사진 , 야외스냅사진,가능",CNTS_200000000007208,선우스타일,제주특별자치도 제주시 일도1동 1148-2 (주)동문시장 2층,제주특별자치도 제주시 동문로 16,"사진관,흑백사진,가족사진,우정스냅,스냅사진,쇼핑,관광기념품,상점/상가",흑백사진과 야외스냅 촬영을 하는 스튜디오.,33.5127431,126.5283168,836-690,010-8913-8733,,https://place.map.kakao.com/526687163#comment
"친구,커플,경관/포토,체험관광,포토스팟,쇼핑,관광기념품,체험,카드결제,현금결제,영어,중국어,단독접근가능,단차없음,저상버스 접근 가능,쉬움",CNTS_200000000008628,미야즈 클로젯 한복,제주특별자치도 제주시 용담삼동 526-2,제주특별자치도 제주시 용마로4길 15,"친구,커플,경관/포토,체험관광,포토스팟,쇼핑,관광기념품,체험,무장애관광","제주 한복, 해녀복 대여점, 해녀스냅 사진, 한복 스냅 사진 체험 스튜디오",33.5154157,126.5067239,,064-713-2025,,정보없음
"커플,친구,공용주차장,화장실,무료 WIFI,흡연구역",CNTS_200000000008915,한복담,제주특별자치도 제주시 연동 272-33,제주특별자치도 제주시 신대로12길 51,"커플,친구,쇼핑,관광기념품,상점/상가",합리적인 가격으로 원하는 시간만큼 한복 체험을 해볼 수 있는 곳.,33.4885493,126.4911887,,,,정보없음
"전통시장,공용주차장,아주 어려움",CONT_000000000500759,한림민속오일시장,제주특별자치도 제주시 한림읍 대림리 1698-4,제주특별자치도 제주시 한림읍 한수풀로4길 10,"전통시장,쇼핑,상점/상가,오일장,관광기념품",여러분 곁에 가까이 있는 한림조끄뜨레시장,33.4201519,126.2742341,63026,064-796-8830,,https://place.map.kakao.com/19397053#comment
#전통시장 #화북종합시장,CNTS_200000000012177,화북종합시장,제주특별자치도 제주시 화북일동 1947-24,제주특별자치도 제주시 진동로5길 31,"전통시장,쇼핑,상점/상가,관광기념품",정감 넘치는 동네시장,33.5218084,126.5664464,,064-752-3001,,https://place.map.kakao.com/18525812#comment
"쇼핑,전통시장,기념품,공용주차장,화장실,단독접근가능,단차없음,장애인 화장실,장애인 전용 주차장,쉬움,착한가격 업소",CONT_000000000500731,서귀포매일올레시장,서귀포시 중앙로 54번길 35 (서귀동 277-1),서귀포시 중앙로 62번길 18,"쇼핑,전통시장,기념품,상점/상가,오일장,관광기념품,무장애관광",365일 문전성시를 이루는 서귀포시 대표 상설시장,33.24828,126.56415,,064-762-2925,,https://place.map.kakao.com/7938166#comment
"쇼핑,전통시장,기념품,밤,공용주차장,착한가격 업소",CONT_000000000500745,동문재래시장,제주특별자치도 제주시 이도일동 1436-7,제주특별자치도 제주시 관덕로14길 20,"쇼핑,전통시장,기념품,밤,상점/상가,관광기념품","다양한 먹거리와 상업의 중심, 제주 동문 재래시장",33.5115817,126.526099,63264,064-752-3001,,https://place.map.kakao.com/8265854#comment
"쇼핑,전통시장,오일장,공용주차장,화장실,임산부 휴게시설,단차없음,수동 휠체어 대여 가능,착한가격 업소,농수산,기념품/소품",CONT_000000000500748,제주민속오일시장,제주특별자치도 제주시 도두일동 1212,제주특별자치도 제주시 오일장서길 26,"쇼핑,전통시장,오일장,상점/상가,관광기념품,무장애관광",제주 현지인의 삶을 가장 잘 말해주는 오일시장,33.4965963,126.4746681,63116,064-743-5985,,https://place.map.kakao.com/12140282#comment
