ID,TITLE,ADDRESS,LAT,LON,TEL,TEL,OPEN_TIME,CATEGORY,DESCRIPTION,STORE_OF_NAVER,IMG_LINK
CNTS_200000000009101,해적선,제주특별자치도 제주시 추자면 추자로 42-1,33.9627586,126.2952052,010-8623-8229,0507-1350-7112,,생선회,추자도에서 잡히는 싱싱한 생선으로 요리하는 음식점,,
CNTS_000000000001014,영춘식당,제주특별자치도 제주시 도남로7길 37-1,33.4968895,126.5273627,064-900-2770,0507-1425-2773,,한식,"육개장, 갈비탕 전문점으로 정식과 두루치기를 판매하는 가족경영의 착한가격업소 영춘식당",4.57,
CNTS_200000000009113,황금섬숯불갈비,제주특별자치도 제주시 추자면 추자로 36,33.9636778,126.2957655,064-742-0478,064-742-0478,,"육류,고기요리",추자에서 즐기는 제주산 돼지고기,4.25,
CONT_000000000501383,추가네,제주특별자치도 제주시 서사로 176(오라일동),33.496532,126.51957,064-723-7588,064-723-7588,,추어탕,"착한가격업소, 야채를 새벽시장에서 저렴하게 구입하고, 국내산 미꾸라지로 추어탕이 유명한 음식점",4.24,
CNTS_200000000008501,리틀비엣,제주특별자치도 제주시 인다7길 16,33.4515309,126.5632259,064-725-6884,0507-1329-6884,일정기휴무 (매주 일요일),베트남음식,제주시 아라동에 위치한 베트남 음식점. ,4.45,
CNTS_000000000022036,바람이풀에그림그린날,안덕면 감산서로 59,33.25785,126.34991,064-792-3657,0507-1449-3657,일정기휴무 (매주 일요일),피자,자연산치즈와 저온숙성한 수제도우를 사용한 건강한 피자카페,4.72,
CONT_000000000501392,탐라가든,제주특별자치도 제주시 서사로 51,33.5078115,126.5203642,064-726-1300,064-726-1300,,"육류,고기요리",공항 근처에 위치한 값싸고 질 좋은 흑돼지를 제공하는 착한가격업소,4.42,
CNTS_200000000009079,추자북경,제주특별자치도 제주시 추자면 신양서길 13-9,33.9354341,126.3227638,010-2260-7616,010-2260-7616,,중식당,추자도에서 맛볼 수 있는 중국음식점,,
CNTS_200000000007129,몰질식육식당,제주특별자치도 서귀포시 이어도로 598,33.2615636,126.49447,,064-739-1542,,한식,고기짬뽕이 유명한 한식당,4.31,
CNTS_000000000021641,심봉사눈뜬톳해물짜장짬뽕,제주특별자치도 서귀포시 대정읍 마라로 43,33.119724,126.26715,064-794-0489,064-794-0489,매일10:00 - 15:30,중식당,마라도 톳 해물 짜장 짬뽕 전문점.,4.04,
CNTS_200000000009094,올레실내포장마차,제주특별자치도 제주시 추자면 추자로 52,33.9642903,126.2929862,064-742-2070,064-742-2070,,포장마차,추자에서 추자도특미와 함께하는 포장마차,3.94,
CNTS_200000000009085,고향향토장터,제주특별자치도 제주시 추자면 추자로 576,33.9354341,126.3227638,064-747-8035,064-747-8035,,"해물,생선요리",계절마다 바뀌는 추자도 특산물 음식점,3.88,
CNTS_000000000022213,빠빠라기,제주특별자치도 제주시 신광로 45,33.4879855,126.4903506,064-753-2888,064-722-1888,,카페,제주의 오래된 빠빠라기 푸짐하면서 시원한 빙수,4.49,
CONT_000000000501190,내가 찾은 맛고을,제주특별자치도 제주시 진남로8길 39,33.522457,126.56764,064-702-0216,064-702-0216,,한식,제주시 화북일동에 있는 삼계탕 전문 착한가격업소,,
CNTS_200000000007519,바닐라파레트,제주특별자치도 제주시 진군길 56-2,33.4771133,126.4806609,010-9074-7846,010-2492-1106,일11:30 - 18:00,"카페,디저트",노형동에 위치한 감성 카페,4.55,
CNTS_200000000007872,구면카페,제주특별자치도 서귀포시 표선면 중산간동로5220번길 47,33.3988071,126.7063341,070-8800-9009,0507-1449-9014,,"카페,디저트",따라비오름 인근 카페,,
CNTS_000000000022026,제주분식,제주특별자치도 제주시 귀아랑길 23,33.491447,126.49762,064-726-2120,0507-1409-2120,,종합분식,공항에서 5분거리 로컬푸드 분식카페,4.32,
CNTS_000000000022382,커피파인더,제주특별자치도 제주시 서광로32길 20,33.4985811,126.5287567,064-726-2689,064-726-2689,,"카페,디저트","커피파인더는 제주시청 근처 골목길 안쪽에 숨어 있습니다.  
한 잔의 음료 너머의 것들을 찾아 헤매고 있습니다. 
그 여정에서 무엇을 찾고, 나누고, 발전하고, 행복해하는지 지켜봐주세요.",4.55,
CONT_000000000501438,후년하우스,제주특별자치도 제주시 삼봉로 12,33.5203612,126.5876201,064-759-9292,0507-1389-9292,,샤브샤브,직접 기른 채소가 무한리필되는 착한가격업소인 샤브샤브 집,4.2,
CNTS_200000000007138,코끼리통닭,제주특별자치도 제주시 동문로 4,33.5128008,126.5269479,064-752-9026,,,"백숙,삼계탕",동문시장에 위치한 시장통닭,3,
CNTS_200000000014199,블리스풀,제주특별자치도 제주시 애월읍 산록서로 383,33.4050742,126.4073278,064-799-8596,064-799-8596,,애견카페,블리스풀은 잔디밭으로 된 운동장이 있어서 강아지들이 실컷 뛰어놀 수 있는 애견 카페다. ,4.74,
CNTS_000000000021192,촵촵,제주특별자치도 제주시 신설로9길 8-1,33.496986,126.53534,--,0507-1321-6468,일정기휴무 (매주 일요일),돈가스,이름만큼 중독성 있는 수제돈가스 집,4.49,
CNTS_200000000014205,엘파소,제주특별자치도 서귀포시 안덕면 화순로 191-43,33.2459838,126.3260534,,010-5827-5838,,"카페,디저트",엘파소는 텍사스의 엘파소 지역을 모티드로 만든 감성카페이다. 카페 건물이 대부분 노란색으로 되어 있어 이국적인 분위기를 풍긴다. ,4.83,
CONT_000000000501241,몽생이,제주특별자치도 제주시 한경면 녹차분재로 628,33.3246425,126.2605156,064-772-3886,064-772-3886,일정기휴무 (매주 일요일),한식,말고기가 맛있다고 소문이 자자한 곳,,
CNTS_000000000021420,대향연탄구이,제주특별자치도 서귀포시 태평로 407,33.244823,126.563866,064-762-0889,064-762-0889,,한식,주먹밥이 함께 나오는 국수전문점,4.34,
CNTS_200000000012682,청파식당횟집,제주특별자치도 제주시 구좌읍 세평항로 12,33.5244994,126.8536448,064-784-7775,064-784-7775,"일17:00 - 21:00
20:00 라스트오더",생선회,"세화해수욕장 인근의 활고등어회 및 활어회 전문점. 싱싱한 회와 함께 한상 가득 푸짐한 조림, 매운탕 등을 즐길 수 있는 곳이다.",4.7,
CNTS_200000000007528,빨간집,제주특별자치도 제주시 광양13길 7,33.4987626,126.5309037,064-723-1173,064-742-5432,"매일16:00 - 01:30
00:10 라스트오더",한식,"빨간 불닭, 치즈 불닭 등 매운 메뉴들만 판매하는 제주 음식점",4.2,
CONT_000000000501258,복단지식당,제주특별자치도 제주시 한림읍 한림북동길 26,33.4174046,126.2640024,064-753-0079,064-753-0079,,한식,경북 포항에서 공수한 시골된장으로 만드는 된장찌개가 일품인 착한가격업소,,
CNTS_000000000021704,내담,제주특별자치도 서귀포시 예래로 296-1,33.241455,126.38309,064-738-2839,064-739-6167,,"아귀찜,해물찜",하예동 내담 아구찜 대구탕 전문점,4.21,
CNTS_200000000007150,별난카페,제주특별자치도 서귀포시 안덕면 녹차분재로 199,33.3061078,126.288574,064-792-7227,064-792-7227,,카페,지역주민들이 직접 재배한 재료를 이용한 디저트와 음료를 맛볼 수 있는 마을 카페.,,
CNTS_000000000020249,피자아일랜드,제주특별자치도 서귀포시 성산읍 환해장성로 513,33.499622,126.53119,064-784-1991,0507-1444-1991,,피자,성산에 위치한 치즈가 맛있는 피자집,4.32,
CNTS_000000000001284,원당골,제주특별자치도 제주시 원당로 72,33.526814,126.592575,064-725-2525,064-725-2525,"일11:30 - 21:00
14:20 - 17:30 브레이크타임",한식,토종닭과 한방 오리를 즐길 수 있는 원당골,5,
CNTS_200000000008112,팜스테이블,제주특별자치도 제주시 수목원길 41,33.4699581,126.48948,064-711-9234,064-711-9234,,"스테이크,립",티본스테이크와 파스타 그리고 친환경 야채를 활용한 샐러드가 있는 스테이크하우스.,,
CNTS_200000000013790,바움하우스,제주특별자치도 제주시 서해안로 448,33.517659,126.487575,064-743-8857,0507-1384-8857,,"카페,디저트",용담 해안도로의 아름다운 바다뷰를 볼 수 있는 바움쿠헨 디저트 전문점 카페,4.53,
CNTS_200000000009091,한밭식당,제주특별자치도 제주시 추자면 대서3길 21,33.9642903,126.2929862,064-742-1858,064-787-0028,일09:00 - 21:00,"육류,고기요리",추자에서 맛볼 수 있는 녹두 삼계탕 ,3.88,
CNTS_000000000021076,고망딱새,제주특별자치도 제주시 서해안로 96,33.50343,126.4597,064-712-5362,064-712-5362,,카페,이호테우 해변 근처에 있는 작은 카페,4.41,
CNTS_000000000001157,해월향,제주특별자치도 서귀포시 성산읍 고성오조로 33,33.446968,126.914444,064-784-4080,064-784-4080,,돼지고기구이,섭지코지 근처에서 맛보는 제주 흑돼지,4.39,
CNTS_000000000022409,현경식당,제주특별자치도 제주시 동광로1길 32,33.5032944,126.527915,064-757-9707,064-757-9707,,"순대,순댓국",푸짐한 양에 놀라고 깊은 맛에 놀라는 보성시장내 현경 식당.,4.2,
CNTS_000000000020807,갯것이식당,제주특별자치도 제주시 가령로 9,33.5033429,126.53718,064-724-2722,064-724-2722,,"해물,생선요리",이도동 제주경찰서 후문 남쪽에 위치한 성게미역국 전문점입니다.,,
CNTS_200000000008377,겹겹의 의도,제주특별자치도 서귀포시 홍중로27번길 4,33.2639577,126.5507293,064-763-0990 ,064-763-0990,일11:00 - 19:00,베이커리,서귀포 서홍동에 위치한 크루아상 카페. ,4.44,
CNTS_000000000021106,위더스트래블,제주특별자치도 제주시 인다9길 29,33.475548,126.54848,064-722-0823,064-722-0823,"일09:00 - 19:00
18:00 라스트오더",카페,아라동에 위치한 브런치 카페,,
CNTS_000000000021644,마라도별장식당,제주특별자치도 서귀포시 대정읍 마라로101번길 43,33.118282,126.26671,010-3783-5270,010-9947-9531,,중식당,마라도산 톳을 활용한 짜장면 짬뽕 전문점,4.24,
CNTS_200000000007332,감저카페,제주특별자치도 서귀포시 대정읍 대한로 22,33.2533626,126.2490546,064-794-5929,064-794-5929,,카페,옛 고구마전분공장을 리모델링해 만든 카페,,
CNTS_000000000001278,이가전복,제주특별자치도 제주시 무근성길 6,33.517696,126.5191,064-726-2009,064-726-2009,,전복요리,건강한 전복요리를 선보이는 전복요리 전문점,4.27,
CNTS_000000000022454,잔디가미,제주특별자치도 제주시 우도면 우도해안길 912,33.4972931,126.9671356,064-784-3331,0507-1304-4113,,베이커리,대표메뉴는 특허 수제 발효빵,,
CNTS_200000000007619,금보가든,제주특별자치도 제주시 조천읍 비자림로 639,33.4276176,126.6665803,064-782-7158,064-782-7158,"매일10:30 - 18:00
17:00 라스트오더",한정식,산굼부리에서 차로 1분거리인 한정식집,4.35,
CNTS_200000000009312,타임스탬프,제주특별자치도 제주시 조천읍 신북로 92-1 1층,33.5349392,126.6237679,064-805-2220,0507-1404-2228,일10:00 - 20:00,"셀프,대여스튜디오",사진관과 카페가 함께하는 제주 스튜디오 카페,4.52,
CONT_000000000501227,마라톤식당,제주특별자치도 제주시 서광로 174,33.4997233,126.5149932,064-757-1945,064-757-1945,,"백반,가정식",매일 새로운 정식 메뉴를 저렴한 가격에 제공하는 착한가격업소,4.45,
CNTS_200000000013321,낭쿰낭쿰,제주특별자치도 서귀포시 중앙로79번길 4,33.2517365,126.560833,064-901-7944,0507-1328-7944,,한식,"낭쿰낭쿰은 2016년 호텔신라의 레시피 전수와 리모델링 지원을 통해 재개장한 ‘맛있는 제주만들기’ 13호점 식당이다. '낭쿰낭쿰'은 ‘집으로 들어오는 작은 골목길의 큰 나무’라는 뜻의 제주 사투리로, 서귀포 올레시장에서 도보 5분 거리에 위치해 있어 제주 관광객들이 즐겨 찾는다.",4.81,
CNTS_200000000009088,동해루,제주특별자치도 제주시 추자면 추자로 58-1,33.9642903,126.2929862,064-742-3615,064-742-3615,,중식당,추자에서 먹을 수 있는 중식전문점,3.66,
CONT_000000000501281,성광식당,제주특별자치도 서귀포시 일주동로 8184 (신효동),33.260715,126.61311,064-767-4110,064-767-4110,"일10:30 - 18:00
17:45 라스트오더",한식,"잡내가 나지 않고, 질기거나 푸석거리지 않은 식감에 진한 국물맛이 일품인 내장탕, 순대백반 전문점",4.65,
CNTS_000000000022563,영해식당,제주특별자치도 제주시 정든로2길 24-1,33.4966963,126.5393772,064-753-2262,064-794-2262,,한식,"밀면과 몸국, 착한 가격의 숨은 맛집",4.58,
CNTS_200000000014208,카페원웨이,제주특별자치도 제주시 한경면 일주서로 4459-4,33.3626289,126.1929895,064-773-0225,064-773-0225,,"카페,디저트",카페원웨이는 한경면 금등리에 위치해있다. 신창 풍차 해안도로에 인근에 위치한 이곳은 빨간 벽돌이 인상적인 장소다.,4.65,
CNTS_000000000021198,웃뜨르우리돼지,제주특별자치도 제주시 한경면 연명로 2,33.29326,126.23335,064-772-5992,0507-1409-5993,일11:30 - 21:30,돼지고기구이,흑돼지농장을 운영하는 식당,4.33,
CNTS_200000000009120,오누이밥상,제주특별자치도 제주시 추자면 추자로 68,33.9611914,126.2945874,010-7129-5479,010-7129-5479,,한식,"밑반찬이 10가지가 넘는 밥상
*매주 금요일 정기휴일",4.17,
CNTS_000000000022151,탭하우스더코너,제주특별자치도 제주시 도령로 27,33.4877957,126.4818957,064-744-2007,064-744-2007,,"맥주,호프","더핸드앤몰트브루어리, 맥파이브루어리, 제주지앵 3가지 양조장의 수제맥주를 모두 맛 볼 수 있는 특별한 곳",4.51,
CNTS_000000000022237,유나카페,서귀포시 남원읍 공천포로 81,33.266018,126.64182,064-732-6969,0507-1339-6969,일11:00 - 18:00,카페,"공천포 검은모래 앞에 위치한 카페, 영화 '좋은날' 촬영지",4.41,
CNTS_200000000014298,본카페,제주특별자치도 제주시 애월읍 애월해안로 179,33.4677624,126.3320282,064-799-5789,010-4123-8004,,카페,본카페는 바다를 보며 커피 한잔하고 여유를 즐길 수 있는 카페다.,4.57,
CNTS_000000000021051,만선바다,제주특별자치도 제주시 삼무로1길 6,33.490963,126.489334,064-742-6300,064-742-6300,일11:30 - 22:00,생선회,제주시내에서 고등어요리를 즐기는 만선식당,4.52,
CNTS_000000000022190,봉주르마담,제주특별자치도 서귀포시 대청로 33,33.2474456,126.5056302,064-739-2900,0507-1440-2900,,베이커리,서귀포 대청로 깔끔한 아파트 단지 상가에 위치하고 있으며 아담한 크기의 시식이 가능한 제과점,4.49,
CONT_000000000501264,산내들식당,제주특별자치도 제주시 서광로4길 16,33.4986386,126.5140831,064-702-0885,064-738-1129,,한식,밑반찬 무한리필 서비스를 제공하는 착한가격업소,3.42,
CNTS_200000000013326,차이나마씸,제주특별자치도 서귀포시 칠십리로 474,33.2412819,126.6014941,064-732-7155,064-732-7155,일10:30 - 18:30,중식당,"차이나마씸은 2017년 호텔신라의 레시피 전수와 리모델링 지원을 통해 재개장한 ‘맛있는 제주만들기’ 19호점 식당이다. 호텔신라 셰프들은 주변 상권 조사에서 선호도가 가장 높았던 해물짬뽕과 전복짜장, 멘보샤를 새로운 메뉴로 선정했고, 이 세 요리는 수년이 지난 지금까지 차이나마씸의 대표 메뉴로 확고한 자리매김을 하고 있다.",,
CNTS_000000000021087,마레벤또,제주특별자치도 제주시 애월읍 애월로1길 10,33.46261,126.31173,010-2824-8452,0507-1354-8452,"일10:00 - 21:00
20:30 라스트오더",이탈리아음식,애월 바다 앞에서 파스타 한 접시,4.56,
CNTS_200000000007515,차마실,제주특별자치도 제주시 애월읍 하귀동남1길 32-15,33.4831051,126.4150235,064-712-7714,064-712-7714,일09:30 - 23:00,차,제주시 애월읍에서 직접 만든 차와 다과를 판매하는 전통찻집,,
CNTS_000000000021020,아따블르,제주특별자치도 제주시 조천읍 북촌11길 15-16,33.54993,126.69455,064-783-1048,064-783-1048,,프랑스음식,제주바다의 신선함이 더해진 부이야베스,,
CONT_000000000501340,인풍감자탕,제주특별자치도 제주시 만덕로 36,33.51346,126.53186,064-758-8414,064-758-8414,,"찌개,전골","제주시 건입동에 위치한 감자탕,해장국을 전문으로 하는 착한가격업소",4.05,
CNTS_000000000022802,올레삼다정,제주특별자치도 서귀포시 태평로537번길 48,33.25308,126.56996,--,0507-1406-7230,"일11:00 - 21:00
15:00 - 17:00 브레이크타임
20:00 라스트오더",향토음식,서귀포에 위치한 헤신믈요리 전문점,4.65,
CNTS_200000000013323,제주콩순옥,제주특별자치도 서귀포시 대정읍 신영로 129-2,33.2234062,126.2549022,064-792-8585,064-792-8585,,한식,"제주콩순옥은 2016년 호텔신라의 레시피 전수와 리모델링 지원을 통해 재개장한 ‘맛있는 제주만들기’ 16호점 식당이다. 모슬포항에서 차로 3분 거리에 위치해 있고, 순두부찌개, 두부전골 등을 주요 메뉴로 한다.",4.31,
CNTS_200000000014197,백수당,제주특별자치도 제주시 구좌읍 월정1길 63,33.5565256,126.7936052,0507-1371-9389,0507-1371-9389,"일11:00 - 18:00
17:30 라스트오더","카페,디저트",백수당은 ‘백수들의 천국’이라는 의미로 월정리에 위치하여 돌담과 한옥의 분위기가 제주다움을 보여준다. ,4.81,
CNTS_000000000021186,보말이야기,제주특별자치도 제주시 한림읍 비양도길 14-3,33.406,126.22901,064-796-8422,064-796-8422,,한식,옛모습을 잘 간직한 보말요리 전문음식점.,,
CNTS_200000000007508,두루두루,제주특별자치도 제주시 삼무로3길 14,33.4904731,126.4945135,064-744-9711,064-744-9711,,"해물,생선요리",제주도민들에게 사랑 받는 객주리조림 식당,4.3,
CNTS_000000000019423,두가시영,제주특별자치도 서귀포시 표선면 하천달산로9번길 98,33.3374683,126.8423582,064-787-2367,064-787-2367,일정기휴무 (매주 일요일),한식,두가시는 제주도 사투리로 부부라는 뜻. 그만큼 화목하고 편안한 분위기에서 고객을 모시는 식당.,4.74,
CNTS_200000000007118,어애랑,제주특별자치도 제주시 한림읍 한림로 422 (협재리) 어애랑,33.3989779,126.2469258,064-796-9253,064-796-9253,"일08:00 - 20:00
19:30 라스트오더","해물,생선요리","전복갈치조림/갈치조림 전문점. 활전복해물뚝배기,생선구이,성게미역국 등 제주를 느낄 수 있는 든든한 메뉴",4.39,
CNTS_200000000008033,낭만주의,제주특별자치도 제주시 내도1길 18-1,33.4955266,126.4376599,010-9911-3200,010-9911-3200,,"카페,디저트",알작지 토스트와 라떼가 맛있는 내도동 알작지 해변 앞 카페 ,4.03,
CNTS_200000000008375,용이식당,제주특별자치도 서귀포시 천지로 40,33.250978,126.5604194,064-732-7892,064-732-7892,,한정식,"서귀포에 위치한 푸짐한 양의 두루치기  전문점.
",4.17,
CNTS_200000000008131,더 코브,제주특별자치도 서귀포시 안덕면 신화역사로304번길 38 제주신화월드 메리어트 리조트관 GF,33.3017501,126.3206458,064-908-1247,064-908-1247,일정기휴무 (매주 일요일),카페,제주신화월드 내에 위치한 합리적인 가격으로 즐기는 호텔 베이커리,4.48,
CONT_000000000501400,파시랑,제주특별자치도 서귀포시 솔동산로 15 (서귀동),33.243404,126.56422,064-733-8125,064-733-8125,일11:00 - 20:00,"카페,디저트",국내산 팥을 가마솥에 직접 삶아낸 팥빙수&단팥죽 전문점,4.55,
CONT_000000000501150,1080칼국수,제주특별자치도 제주시 서광로13길 3,33.5003337,126.517785,064-759-1089,064-759-1089,,"칼국수,만두",착한가격업소(농가와 직접거래하여 저렴한 가격에 음식 제공),4.35,
CNTS_000000000022143,커피림,제주특별자치도 제주시 수목원길 27,33.469433,126.4882,064-749-3311,010-8200-1261,"일10:30 - 20:00
19:30 라스트오더","카페,디저트",커피림은 한라수목원 입구에 위치 한 카페입니다.,4.53,
CONT_000000000501337,이게밥도둑,제주특별자치도 제주시 삼무로7길 23,33.491617,126.4936071,070-7553-2171,0507-1301-6321,,게요리,블루베리를비롯 6가지 과일로 숙성시킨 달콤한 간장게장 전문점,4.39,
CNTS_000000000022206,미복빈대떡,제주시 신대로16길 49,33.486736,126.49128,064-746-2002,064-746-2002,,한식,음식이 보약이다'라는 음식 이념을 추구하는 미복,3.73,
CNTS_200000000007609,숨비나리,제주특별자치도 서귀포시 안덕면 중산간서로1615번길 8,33.2822845,126.3483636,064-792-3455,0507-1401-3455,,"해물,생선요리",산방산과 바다 전망을 보며 맛보는 제주 음식,4.12,
CNTS_200000000014083,바코,제주특별자치도 제주시 조천읍 선진길 83,33.4585034,126.7108673,064-782-6668,064-782-6668,"일12:00 - 23:00
15:00 - 17:30 브레이크타임
22:00 라스트오더",와인,차분하고 우아한 바코,4.49,
CNTS_200000000007629,제주침시술소바,제주특별자치도 제주시 동광로 12,33.5010889,126.530548,,0507-1439-1378,,"우동,소바",직접 개발한 한국형 소바육수로 요리하는 소바 전문점,4.73,
CNTS_200000000009573,호도제과,제주특별자치도 서귀포시 이어도로 923-1 호도제과,33.2378827,126.513256,064-738-0010,0507-1477-0047,일10:00 - 19:00,베이커리,"서귀포 법환동에 위치한 호도제과
유기농 밀과 좋은 재료를 고집하고 유화제와 개량제를 일체 사용하지 않으며, 오로지 시간이 만들어주는 건강한 빵을 당일 생산 당일 판매한다.",4.49,
CNTS_000000000020972,마실디,제주특별자치도 서귀포시 중정로73번길 16,33.24957,126.56415,010-8237-2114,0507-1343-2114,,"과일,주스전문점",제주의 특산품 천혜향 주스 맛보며 쇼핑은 덤,4.39,
CNTS_000000000022521,커피로카,제주특별자치도 제주시 고마로 86,33.5066094,126.5404817,064-723-0800,064-723-0800,,카페,치즈빙수가 맛있는 제주시카페,4.42,
CNTS_000000000021047,커피코알라,제주특별자치도 제주시 과원북4길 71,33.48121,126.48916,064-773-7004,064-773-7004,,카페,"나만의 커피의 맛을 찾아서, 커피코알라",4.58,
CNTS_000000000021535,석다원,제주특별자치도 제주시 구좌읍 해맞이해안로 1752,33.5271,126.8892,-3113,064-784-2329,,"칼국수,만두",해녀가 운영하는 싱싱한 식당 ‘석다원’,4.19,
CNTS_000000000021535,석다원,제주특별자치도 제주시 구좌읍 해맞이해안로 1752,33.5271,126.8892,-3113,064-784-2329,,"칼국수,만두",해녀가 운영하는 싱싱한 식당 ‘석다원’,4.19,
CNTS_200000000008378,베이크샵스니프,제주특별자치도 서귀포시 신서귀로 32,33.2517399,126.5111166,070-8845-0727,064-794-0727,,베이커리,서귀포에 위치한 시나몬롤 전문 베이커리숍.,4.64,
CONT_000000000501277,서문뒷고기,제주특별자치도 제주시 중앙로14길 40-2,33.5107686,126.5204355,064-757-5733,064-757-5733,매일17:00 - 22:00,돼지고기구이,"흑돼지 오겹살과 뒷고기, 두루치기가 맛있는 곳",4.52,
CNTS_000000000001261,빅토리아,제주특별자치도 제주시 서해안로 268,33.5092872,126.4742764,064-743-7366,,,"카페,디저트",용담해안도로에 위치한 하얀 목조 건물의 분위기가 좋은 레스토랑,4.4,
CNTS_200000000008376,시스터필드,제주특별자치도 서귀포시 월드컵로 8,33.2490312,126.5074027,064-739-2225,064-739-2225,매일09:00 - 18:00,베이커리,유기농 재료들을 사용하는 서귀포 빵집. ,4.46,
CNTS_200000000013594,우뭇개일번지,제주특별자치도 서귀포시 성산읍 일출로 288,33.4631283,126.9352404,,064-784-3456,매일06:00 - 15:00,한식,부담없는 가격으로 맛있는 한식메뉴를 먹을 수 있는 식당,4.48,
CNTS_000000000021488,쫑이네밥집,제주특별자치도 서귀포시 성산읍 환해장성로 549,33.40525,126.903854,064-782-5880,064-782-5880,,한식,섭지코지와 가까운 제주의 바다 향을 담은 식당,4.65,
CNTS_200000000010714,안녕구움,제주특별자치도 제주시 한경면 고산로 49 1층,33.3053522,126.1791699,064-901-4987,064-901-4987,,"카페,디저트",제주서쪽 한경면 고산리 작은 디저트가게 안녕구움,4.66,
CONT_000000000501342,일출왕뚝배기,제주특별자치도 서귀포시 성산읍 일출로 247,33.4606915,126.9325508,064-784-1190,064-784-1190,매일07:00 - 20:00,"해물,생선요리","성산일출봉 근처 싱싱한 해산물이 특별한 맛집,뚝배기 전문점",3.67,
CNTS_200000000007221,서홍정원,제주 서귀포시 솜반천로55번길 12-8,33.2532373,126.5553129,064-762-5858,064-762-5858,,"카페,디저트",솜반천 인근에 위치한  디저트 카페.,4.48,
CONT_000000000501275,생원전복,제주특별자치도 서귀포시 안덕면 산방로 7,33.245869,126.3307927,064-792-2109,064-792-2109,,전복요리,해녀출신의 양가 어머니로부터 전수받은 전복요리의 진수,4.42,
CNTS_000000000001097,대기정,제주특별자치도 서귀포시 이어도로 41,33.24031,126.428665,064-739-1041,0507-1403-1041,,한식,취향에 따라 고르는 제주 음식,4.54,
CNTS_000000000022895,덕승식당,제주특별자치도 서귀포시 대정읍 최남단해안로30번길 4,33.499622,126.53119,-3313,064-794-0177,"일10:00 - 20:40
15:30 - 16:30 브레이크타임",한식,전용 배를 가지고 저렴한 가격에 신선한 요리를 선보이는 해산물 전문 식당. 인기에 힘입어 기존 가게 근처에 새로 개장한 두 번째 덕승식당이다. 점심과 저녁 고루 인기가 좋다.,4.32,
CNTS_200000000008044,아줄레주,제주특별자치도 서귀포시 성산읍 신풍하동로19번길 59,33.366762,126.8391336,010-2542-7278,0507-1411-4052,,"카페,디저트","에그타르트로 유명한 유럽풍의 카페
",4.57,
CNTS_200000000014202,식전당포,제주특별자치도 제주시 광양14길 17-1,33.4975615,126.5292883,,010-7592-7007,,"전,빈대떡",식전당포는 제주 시청 인근에 위치한 전집이다.,4.54,
CNTS_000000000001504,제주정,제주특별자치도 제주시 일주동로 320,33.521053,126.57905,064-721-2228,064-721-2228,일10:00 - 21:30,한식,영양만점 한식이 가득한 제주정,4.33,
CNTS_000000000021281,동북왕,제주특별자치도 제주시 사장1길 43,33.48512,126.49115,064-747-3999,064-747-3999,,중식당,"전통 중국요리를 찾아서, 동북왕",,
CNTS_200000000014268,이너프,제주특별자치도 제주시 애월읍 고성8길 33,33.4561242,126.4186832,0507-1495-0012,0507-1495-0012,"매일11:00 - 18:00
17:30 라스트오더","카페,디저트",이너프는 ‘It is good enough for today.’의 의미로 만든 가게다. ,4.37,
CNTS_000000000022381,명성식당,제주특별자치도 제주시 삼성로 94,33.508854,126.53518,064-755-6664,064-755-6664,일09:30 - 20:00,한식,삼성혈에 위치한 제주 향토 정식식당,4.45,
CNTS_200000000007649,착한집,제주특별자치도 제주시 서광로 98,33.4999552,126.5070561,064-713-7136,064-713-7136,,한정식,제주시 오라동에 위치한 한정식전문점인 착한집은 신선한 재료들을 사용하여 만든 다양하고 정갈한 음식들이 준비되어 있다.,4.31,
CNTS_200000000009011,허니문하우스,제주특별자치도 서귀포시 칠십리로 228-13,33.2844099,126.5796743,070-4277-9922,070-4277-9922,,"카페,디저트",유럽풍 건축물과 파노라마로 펼쳐지는 바다 경관을 보며 즐기는 베이커리 카페,4.45,
CNTS_000000000021200,소반,제주특별자치도 서귀포시 중동로 23,33.251976,126.566154,064-732-2528,064-732-2528,,한식,여행지에서 맛보는 집 밥,4.59,
CNTS_200000000008311,타무라,제주특별자치도 제주시 조천읍 중산간동로 670,33.4988637,126.6569134,064-783-9460,0507-1302-9460,,태국음식,조천에 있는 태국 요리 전문점. ,4.46,
CONT_000000000501325,오르막가든,제주특별자치도 서귀포시 대포중앙로 12,33.250298,126.43307,064-738-7755,0507-1337-7756,,돼지고기구이,중문관광단지 근처에 위치한 제주산 친환경 무항생제 흑돼지만을 제공하며 놀이방 구비된 모범음식점,4.45,
CNTS_200000000014310,카이터스,제주특별자치도 제주시 매촌4길 3,33.5162617,126.5914916,064-702-2032,064-702-2032,,애견카페,카이터스는 삼화지구 인근에 위치한 카페 앤 펍이다.,4.96,
CNTS_200000000009109,귀빈식당,제주특별자치도 제주시 추자면 추자로 14-3,33.9642903,126.2929862,064-742-4900,064-742-4900,,한식,1인 식사가능한 저렴한 굴비정식 ,,
CNTS_200000000009103,플로렌스,제주특별자치도 제주시 추자면 추자로 30-2,33.9642903,126.2929862,010-2435-6809,010-2435-6809,,"카페,디저트",추자바다가 보이는 가성비 최고 카페,,
CNTS_200000000008313,카페2085,제주특별자치도 제주시 조천읍 선교로 185,33.4727191,126.7061921,010-4228-1729,0507-1381-1729,,브런치,통유리 건물이 예쁜 감성카페. ,,
CNTS_200000000013322,제주돔베막국수,제주특별자치도 제주시 한경면 고산로 35,33.3041465,126.1794537,064-773-2147,064-773-2147,,막국수,제주돔베막국수는 2016년 호텔신라의 레시피 전수와 리모델링 지원을 통해 재개장한 ‘맛있는 제주만들기’ 14호점 식당이다. ,4.52,
CNTS_200000000010857,면사무소,제주특별자치도 제주시 애월읍 애월해안로 494,33.4783818,126.3570074,010-2450-1402,0507-1332-1402,,"칼국수,만두",맛보장. 뷰보장. 쉼보장 - 원없이 힐링할 수 있는 제주칼국수맛집 면사무소입니다. ,4.5,
CNTS_200000000009124,보라네,제주특별자치도 제주시 추자면 추자로 96,33.9567036,126.2969646,064-744-4305,064-744-4305,,한식,추자도산 재료로 만드는 보라네정식,,
CNTS_200000000008078,모노클제주,제주특별자치도 서귀포시 남원읍 태위로360번길 30-8,33.2709058,126.6584811,070-7576-0360,0507-1314-0360,,카페,남원읍 제주동백수목원 가까이에 있는 감성 카페,4.55,
CNTS_000000000022235,마님순대,제주시 정존15길 42,33.48822,126.476204,064-713-5657,064-747-5657,,"순대,순댓국",푸짐한 양을 자랑하는 순대따로국밥이 유명한 집,4.36,
CNTS_200000000008355,오캄,제주특별자치도 제주시 정실3길 118,33.4715014,126.5094968,064-748-3118,064-748-3118,일10:00 - 18:00,베이커리,건강한 재료로 만드는 유기농 제주빵집.,,
CONT_000000000501430,홍도니,제주특별자치도 제주시 연북로 187,33.4479443,126.5134221,064-752-1294,064-752-1294,,돼지고기구이,주문과 동시에 터이블 앞에서 저울로 직접 중량 확인 해주는 믿을 수 있는 착한식당,3.7,
CNTS_000000000001077,서귀포갈비,제주특별자치도 서귀포시 동홍로 42,33.252373,126.56801,-8311,064-762-2323,,"육류,고기요리",도민이 찾는 갈비집,4.23,
CNTS_200000000009115,청정고을식당,제주특별자치도 제주시 추자면 대서1길 6,33.9642903,126.2929862,010-3694-3789,010-3694-3789,,"해물,생선요리",추자대표 특산물 굴비백반 음식점,,
CNTS_200000000013314,메로식당,제주특별자치도 서귀포시 중정로91번길 16,33.2496808,126.5654346,064-762-7899,064-757-1411,일정기휴무 (매주 일요일),"해물,생선요리","2014년 호텔신라의 레시피 전수와 리모델링 지원을 통해 재개장한 ‘맛있는 제주만들기’ 3호점 식당, 메로구이, 메로탕면, 메로조림 등 식당에서 선보이는 5가지 메뉴들은 모두 메로로 승부수를 건다.",4.61,
CNTS_000000000021122,컴플리트커피,제주특별자치도 제주시 국기로4길 1,33.47824,126.49136,070-4129-0315,064-805-3150,,"카페,디저트",인테리어와 함께 특색 있는 메뉴가 매력적인 카페,,
CNTS_200000000007155,씨리얼,제주특별자치도 제주시 한림읍 명랑로 26,33.4143016,126.267488,064-796-5550,064-796-5550,"매일09:30 - 16:00
15:30 라스트오더",브런치,한림에서 만나는 런던 감성 브런치 카페,4.56,
CNTS_000000000022290,라쁠라주,제주특별자치도 제주시 서해안로 518,33.5198301,126.4944679,064-712-0978,0507-1403-0978,,햄버거,정통 프랑스 방식으로 만든 수제 디저트와 브런치를 함께 즐길수 있는 카페,4.29,
CNTS_000000000022265,꽃향유,제주시 애월읍 고하상로 101,33.4569306,126.3475934,064-799-1500,0507-1420-1502,,"카페,디저트",꽃향유' 제주를 담다 카페와 아트샵이 공존하는 공간,4.65,
CNTS_000000000021059,어머니빵집,제주특별자치도 제주시 도령로 103,33.491585,126.488625,064-752-1281,0507-1306-1281,일07:00 - 22:00,베이커리,엄마의 마음으로 만드는 건강한 빵,4.36,
CNTS_200000000007756,함덕찜,제주특별자치도 제주시 조천읍 함덕로 20,33.5416773,126.6728881,064-782-1981,064-782-1981,,"육류,고기요리","함덕해수욕장 근처 찜 요리 전문점. 소갈비, 활전복, 한치 그리고 딱새우가 들어가 있는 함덕갈찜이 대표적이다.",4.55,
CONT_000000000501158,감나무집,제주특별자치도 제주시 오남로 12,33.4941877,126.5195932,064-722-8292,064-722-8292,일10:30 - 22:00,한식,모든 재료를 자체 농장에서 직접 조달해 만든 신선한 음식을 저렴한 가격에 제공하는 착한가게업소,4.38,
CONT_000000000501263,사방팔방,제주특별자치도 제주시 우정로10길 12,33.4888877,126.4296093,064-743-4080,064-743-4080,,생선회,"싱싱한 고등어회, 삼치회, 제철회와 푸짐한 밑반찬이 있는 곳",4.38,
CNTS_200000000007673,창흥식당,제주특별자치도 제주시 조천읍 함덕16길 15,33.540309,126.667206,064-783-8508,0507-1356-8508,,한식,함덕해수욕장 근처 제주 가정식 전문점,4.43,
CONT_000000000501225,마돈,제주특별자치도 서귀포시 성산읍 섭지코지로 56,33.4375266,126.9218868,064-784-5379,0507-1336-5379,,"육류,고기요리","성산 흑돼지, 말고기 전문점 마돈입니다.",4.24,
CONT_000000000501404,하나로국밥,제주특별자치도 서귀포시 천제연로 222-2,33.2513188,126.4282136,064-738-4514,064-758-2292,,"순대,순댓국",중문동에 위치한 진하고 칼칼한 국밥을 저렴한 가격에 제공하는 국밥집,3.9,
CONT_000000000501344,자리돔횟집,제주특별자치도 서귀포시 동홍동로 7,33.25554,126.57477,064-733-1239,064-733-1239,"일11:00 - 21:30
14:00 - 16:00 브레이크타임
20:30 라스트오더",생선회,"자리물회, 고등어회 전문점",4.61,
CNTS_200000000014239,흑돼지BBQ,제주특별자치도 서귀포시 태평로353번길 7,33.2468281,126.5597385,064-762-1277,0507-1423-1277,,"육류,고기요리",흑돼지BBQ는 올레시장 근처에 위치하여 기본에 충실하면서 최고의 맛을 선사한다고 자부하는 곳이다.,4.65,
CNTS_200000000014209,찰리아저씨맛집,제주특별자치도 제주시 한경면 용고로 118-2,33.3031554,126.1774634,064-773-0145,064-773-0145,,국수,찰리아저씨맛집은 한경면 고산리에 위치해있다. 마스코트 멍멍이가 반겨주는 이곳은 가게 이름처럼 찰리아저씨 혼자 운영하고 있다.,4.4,
CNTS_000000000021196,오복떡집,제주특별자치도 제주시 동문로2길 10,33.512304,126.5267163,064-753-4641,064-753-4641,,떡카페,제주도를 방문한다면 한 번쯤!,4.31,
CNTS_000000000022406,누룽지식당,제주특별자치도 제주시 고산동산6길 15-1,33.4942197,126.5320533,064-724-6665,064-724-6665,일정기휴무 (매주 일요일),한식,세무서사거리 인근에 자리 잡은 고등어조림 전문 한식당,4.32,
CNTS_200000000007456,오르미,제주특별자치도 제주시 서회천길 33,33.4647845,126.6329231,,010-9595-2138,,"카페,디저트",카페 오르미는 여행객들이 자주 찾지 않는 마을에 있어서 조금 낯설 수 있다. 내비게이션에 서회천 복지회관을 입력하자. 카페 오르미는 서회천 복지회관 맞은편에 있다. 오름을 컨셉으로 한 카페답게 매장 내부에는 한쪽 면에 크게 자리한 오름 분포지도가 있다.,,
CNTS_200000000012584,메종드쁘티푸르,제주특별자치도 제주시 신설로7길 3,33.492584,126.5428767,064-702-0919,064-702-0919,매일07:00 - 22:00,베이커리,제주시 아라동에 위치한 메종드뿌띠푸르는 제주에 많은 체인점을 가지고 있으며 다양한 빵과 케이크를 만나볼 수 있는 베이커리 전문점이다.,4.33,
CONT_000000000501200,대포횟집,제주특별자치도 서귀포시 대포로 169 (대포동),33.239067,126.43923,064-738-1380,064-738-1380,,생선회,1985년부터 30년에 걸쳐 그 자리를 지켜온 제주 토박이 횟집,4.42,
CNTS_000000000022422,커피앤빵,제주특별자치도 제주시 추자면 추자로 58-1,33.96188,126.29397,064-743-8589,064-743-8589,,"카페,디저트",상추자도에 위치한 브레드 카페,4.15,
CONT_000000000501187,나무카페,제주특별자치도 제주시 조천읍 선교로 560,33.45616,126.7105,064-783-0002,064-783-0002,,카페,"거문오름 부근 통나무로 지은 카페로 커피, 여행자 식사 등을 판매",4.6,
CNTS_200000000008073,안트레,제주특별자치도 제주시 애월읍 애월로 11,33.4600513,126.3113009,,0507-1325-0088,,펜션,"앤티크하고 빈티지한 분위기의 한담 해안 산책로 인근 카페 
",,
CNTS_200000000009732,미나리,제주특별자치도 제주시 삼무로11길 34,33.4905415,126.4957637,064-744-3625,0507-1368-3625,일정기휴무 (매주 일요일),한식,"신제주권에 위치, 제주의 신선한 돼지를 사용한 두루치기 맛집!",4.31,
CNTS_000000000001285,돈풍년,제주특별자치도 제주시 승천로 52,33.492493,126.54009,064-713-5252,064-713-5252,"매일11:00 - 22:00
15:00 - 17:00 브레이크타임",돼지고기구이,제주산 흑돼지와 한우가 있는 쾌적한 식사 공간,4.36,
CNTS_000000000001275,명물,제주특별자치도 제주시 탑동로11길 2-1,33.5166654,126.517019,064-723-5233,064-723-5233,매일09:00 - 21:00,"해물,생선요리",풍성한 밑반찬과 함께 즐기는 다양한 생선요리,4.35,
CONT_000000000501437,황금어장,제주특별자치도 서귀포시 중앙로48번길 14,33.2490795,126.5631739,064-738-4418,064-748-8989,"일09:00 - 21:00
20:00 라스트오더",한식,서귀포에 위치한 자연산 전문 포장횟집,4.29,
CNTS_200000000014212,제주기와,제주특별자치도 제주시 애월읍 광령남4길 45-1,33.3701721,126.4819697,0507-1362-7515,0507-1362-7515,,"카페,디저트",제주기와는 애월읍 광령리에 위치한 카페로 이름처럼 기와로 만들어진 장소다.,4.84,
CNTS_200000000007261,비자블라썸,제주특별자치도 제주시 구좌읍 비자림로 2244,33.5312449,126.8506911,010-4449-3885,0507-1341-3885,,브런치,비자림 근처에 위치한 브런치 카페,4.6,
CNTS_200000000007135,세러데이아일랜드,제주특별자치도 제주시 구좌읍 평대7길 51,33.5277017,126.8392989,,,일(2/5)휴무,카페,평대리 마을 안 숨어있는 이탈리안 레스토랑,4.54,
CNTS_200000000007117,돌코롬봉봉,제주특별자치도 서귀포시 표선면 민속해안로 35,33.3255768,126.7999334,,,,카페,입안에 가득 차는 달콤함,4,
CNTS_200000000007203,송당나무,제주특별자치도 제주시 구좌읍 송당5길 68-140,33.4764906,126.7882841,010-9364-2819,010-9364-2819,매일10:00 - 18:00,플라워카페,비자림 인근에 위치한 송당나무는 넓은 정원과  꽃을  감상할 수 있는 가드닝  카페이다.,4.3,
CNTS_200000000014111,다소니,제주특별자치도 제주시 오남로6길 24,33.490672,126.5177399,064-752-5533,064-752-5533,"일11:00 - 21:00
15:00 - 17:00 브레이크타임
20:00 라스트오더",차,정갈하고 풍성하게 즐기다,4.5,
CNTS_200000000014230,플라이오조,제주특별자치도 서귀포시 성산읍 오조로85번길 44,33.4612581,126.9109211,0507-1382-2454,0507-1382-2454,,"카페,디저트",플라이오조는 성산 오조리에 위치해있다.,4.63,
CNTS_000000000020814,제주서문수산,제주특별자치도 제주시 서문로4길 13-2,33.511383,126.517975,064-722-3021,064-722-3021,매일17:00 - 22:00,한식,배가 터지도록 줄줄이 나오는 생선요리 코스를 맛보고싶다면,4.19,
CNTS_200000000014210,제주오누이,제주특별자치도 제주시 구좌읍 해맞이해안로 972,33.5425587,126.8281341,064-782-6801,064-782-6801,,전복요리,제주오누이는 월정리에 위치하여 내부가 통창으로 되어 있어 아름다운 제주 바다를 보며 맛있는 음식을 즐길 수 있는 곳이다.,4.41,
CNTS_200000000007488,앙카페,제주특별자치도 서귀포시 대정읍 하모항구로 75,33.2202431,126.2515369,010-9984-5871,010-9984-5871,매일10:00 - 22:00,"카페,디저트",모슬포 방어축제의 거리 입구에 위치한 카페&바,4.38,
CONT_000000000501267,산방식당,제주특별자치도 서귀포시 대정읍 하모이삼로 62,33.223396,126.2543,064-794-2165,064-794-2165,일11:00 - 18:00,한식,"제주식 밀면과 수육 모두 맛있기로 소문난 곳, 2016 KOREAT JEJU TOP10 선정",4.3,
CNTS_000000000018924,봉봉커피,제주특별자치도 제주시 우도면 우도해안길 630,33.523594,126.95492,064-782-3367,010-4671-0030,,"카페,디저트",인어공주 촬영지가 가까운 커피 전문점,4.4,
CNTS_000000000020965,와토커피,제주특별자치도 서귀포시 대정읍 동일하모로 238,33.2254,126.25662,010-8324-1455,0507-1407-1452,일정기휴무 (매주 일요일),"카페,디저트",고요하고 따뜻한 마을 대정읍에 맛있는 커피 향이 폴폴 나는 로스터리 카페,4.53,
CNTS_000000000021498,데미안,제주특별자치도 제주시 한경면 고조로 492-15,33.32901,126.221903,070-8817-8555,0507-1401-0552,,돈가스,수제 흑돼지 돈까스가 무한리필,4.74,
CNTS_000000000020477,신산리마을카페,제주특별자치도 서귀포시 성산읍 환해장성로 33,33.37661,126.876945,064-784-4333,064-784-4333,매일10:00 - 17:00,"카페,디저트",돌고래가 뛰노는 바다가 보이는 신산리의 작은 카페,4.44,
CNTS_000000000020430,덕승식당,제주특별자치도 서귀포시 대정읍 하모항구로 66,33.2192451,126.2513444,064-794-0177,064-794-0177,"일10:00 - 20:40
15:30 - 16:30 브레이크타임",한식,"생선요리가 맛있는 식당, 2016 KOREAT TOP10 선정",4.32,
CNTS_000000000020785,빌레왓,제주특별자치도 서귀포시 안덕면 화순서동로 14,33.2525074,126.3351056,064-794-3939,0507-1366-3939,,"스파게티,파스타전문",산방산 버거가 유명한 맛집,4.36,
CNTS_000000000020043,허벅식당,제주특별자치도 제주시 구좌읍 세평항로 26,33.5255713,126.8544176,064-782-0799,0507-1415-0799,,향토음식,"푸른 제주 바다도 보고, 맛있는 제주 향토 음식도 먹고",4.52,
CONT_000000000501216,돌하르방식당,제주특별자치도 제주시 한림읍 한림로 300,33.3879944,126.2397837,064-796-0001,064-752-7580,,한식,제주의 담백한 전통음식,4.38,
CNTS_000000000020864,말이,제주특별자치도 제주시 구좌읍 세화1길 40,33.52665,126.85567,010-7146-4567,0507-1438-4567,,종합분식,구좌읍 세화리에 위치한 분식집,,
CONT_000000000501156,가시식당,제주특별자치도 서귀포시 표선면 가시로 565번길 24,33.353035,126.77152,064-787-1035,064-787-1035,,돼지고기구이,한라산 중산간 가시리에서 40년 동안 자리를 지켜온 순댓국 전문점이다. 순댓국과 두루치기가 단연 인기메뉴이다. 2016 KOREAT JEJU TOP10 선정,4.35,
CNTS_000000000020330,아라파파,제주특별자치도 제주시 국기로3길 2,33.4784467,126.4909905,064-725-8204,064-725-8204,매일08:00 - 22:00,베이커리,연동에 위치한 제주3대빵집 중 하나,4.38,
CNTS_000000000001036,쌍둥이횟집본점,제주특별자치도 서귀포시 중정로62번길 14,33.24659,126.562996,064-762-0478,064-762-0478,,생선회,저렴하고 푸짐하고 맛있는 횟집,4.19,
CNTS_000000000020742,벨롱,제주특별자치도 제주시 구좌읍 해맞이해안로 1652,33.528336,126.87951,070-8242-1899,0507-1300-1899,,라이브카페,반짝반짝한 제주의 자연 아래 복합문화공간,4.77,
CNTS_000000000001054,서귀포흑돈,제주특별자치도 서귀포시 칠십리로 278,33.24794,126.582184,064-767-9718,0507-1403-9718,,"육류,고기요리",쫀득한 흑돼지 생고기집,,
CNTS_000000000020860,해담은,제주특별자치도 제주시 남광북1길 41,33.49663,126.53759,064-755-2775,064-755-2775,,한식,제주시 이도동에 위치한 횟집,3.77,
CNTS_000000000018355,황금손가락,제주특별자치도 제주시 구남동1길 44,33.49308,126.54125,064-746-8281,064-746-8281,,일식당,구남동에 위치한 초밥 정식 전문점. 황금손가락 대게튀김이 인기좋다.,4.32,
CNTS_000000000020853,맛나식당,제주특별자치도 서귀포시 성산읍 동류암로 43,33.44859,126.91591,064-782-4771,064-782-4771,,한식,갈치조림이 유명한 성산일출봉 근처 맛집,4.46,
CNTS_000000000018331,로뎀가든,제주특별자치도 제주시 우도면 우도해안길 264,33.50358,126.94283,064-782-5501,064-782-5501,,한식,우도로뎀펜션과 같이 하는 음식점 1층에 위치한 로뎀가든,4.74,
CNTS_000000000001186,국수앤,제주특별자치도 서귀포시 표선면 표선당포로 19-3,33.32623,126.844284,064-787-5630,0507-1317-5630,,국수,지역주민들이 많이 찾는 백사장횟집,4.5,
CNTS_000000000020471,카이로스,제주특별자치도 제주시 애월읍 장유길 49-39,33.449875,126.39992,064-799-2299,064-799-2299,,카페,"애월에 위치한 오가닉 테마 카페, 유기농 원재료로만 만든 식사와 차",4.14,
CNTS_000000000022664,노라바,제주시 애월읍 구엄길 100,33.48283,126.376434,064-772-1900,0507-1360-1900,,라면,매일 아침 직접 끓인 육수로 맛을 내는 해물라면,,
CNTS_000000000018970,우도이야기,제주특별자치도 제주시 우도면 우도해안길 504,33.51954,126.94941,064-783-6945,064-783-6945,,한식,우도에서 맛보는 신선한 회덮밥과 해물라면,4.6,
CNTS_000000000021502,대성아귀찜,제주특별자치도 제주시 조천읍 함덕3길 4,33.54425,126.658,064-784-0975,064-784-0975,,"아귀찜,해물찜",아귀가 통으로 들어간 푸짐한 아귀찜,4.43,
CNTS_000000000020820,올댓제주,제주특별자치도 제주시 중앙로1길 33 2층,33.5162354,126.5284396,064-901-7893,064-901-7893,매일18:00 - 24:00,"맥주,호프","바다와 땅에서 거둔 것으로 차린 요리, 여기에 좋은 벗이 될 만한 술을 함께 내는 다정한 비스트로
2016 KOREAT JEJU TOP 10 선정",4.25,
CONT_000000000501412,한성식당,제주특별자치도 서귀포시 성산읍 일출로 287,33.4631697,126.9350183,064-782-4646,064-782-4646,,"해물,생선요리",성산일출봉 인근에 위치한 향토음식점,,
CNTS_000000000000785,이어도식당,제주특별자치도 서귀포시 표선면 성읍정의현로22번길 10-1,33.384068,126.80208,064-787-4333,064-787-4333,,한정식,제주 고사리 삼겹살을 제대로 느낄수 있는 식당,4.62,
CNTS_000000000020145,해월정,제주특별자치도 제주시 구좌읍 해맞이해안로 2340,33.4880673,126.8804954,064-782-5664,064-782-5664,,"해물,생선요리",종달리 바다내음과 고소한 보말의 완벽한 조화를 맛보다,4.22,
CNTS_000000000018890,우도왕자이야기,제주특별자치도 제주시 우도면 우도해안길 252,33.50263,126.94384,010-4049-3303,010-4049-3303,,아이스크림,서빈백사해변에 있는 우도땅콩아이스크림 가게,4.33,
CNTS_000000000018363,우수미회센타,제주특별자치도 제주시 연화로2길 24-1,33.4772855,126.4899617,064-745-3848,064-745-3848,,생선회,"제주도에 최초로 전어를 소개하고 유통한 집이다. 메뉴판은 제철 생선을 중심으로 매일 바뀌며, 간단하지만 먹을것만 있는 반찬들이 등장하는 것이 장점이다.",4.51,
CNTS_000000000018397,숨비나리카페,제주특별자치도 서귀포시 안덕면 중산간서로1615번길 8,33.282284,126.348366,010-7191-9861,010-7191-9861,,"카페,디저트",아름다운 뷰가 돋보이는 브런치 카페,4.4,
CNTS_000000000018339,안녕육지사람,제주특별자치도 제주시 우도면 우도해안길 792,33.515114,126.957245,070-4225-0170,0507-1387-0186,매일10:30 - 16:30,"카페,디저트",하고수동해수욕장 앞에 위치한 카페,4.55,
CNTS_000000000020164,카페제주동네,제주특별자치도 제주시 구좌읍 종달로5길 23,33.493282,126.8987,070-8900-6621,070-8900-6621,,카페,종달리에 위치한 작은 카페로 종달리의 정취를 담고 있다,4.65,
CNTS_000000000020352,바당지기,제주특별자치도 제주시 구좌읍 해맞이해안로 480,33.5547935,126.7980411,064-784-6258,064-784-6258,일09:00 - 21:00,"해물,생선요리",입안에 가득 퍼지는 제주의 바다향,4.23,
CNTS_000000000020290,2093하우스,제주특별자치도 제주시 조천읍 남조로 2093,33.427616,126.66658,070-8833-2093,070-8833-2093,,돈가스,에코랜드 근처에 위치한 제주 돈까스 맛집,4.26,
CNTS_000000000020345,남양수산,제주특별자치도 서귀포시 성산읍 고성동서로56번길 11,33.450134,126.91422,064-782-6618,064-782-6618,"일14:00 - 21:00
20:00 라스트오더",생선회,제철 회와 꼼장어가 유명한 제주도민맛집,4.65,
CNTS_000000000020714,중앙식당,제주특별자치도 서귀포시 안덕면 화순로 108,33.246746,126.33492,064-794-9167,064-794-9167,일06:00 - 20:00,한식,"제주에서 나는 해산물로 차린 한 끼를 맛볼 수 있는 한식당입니다.
2016 KOREAT JEJU TOP 30 선정",4.32,
CNTS_000000000021096,해뜨는식당,제주특별자치도 서귀포시 성산읍 한도로 269,33.465702,126.93605,064-782-3380,064-782-3380,,한식,"제주를 보고, 제주를 맛볼 수 있는 곳",4.4,
CONT_000000000501271,삼무국수,제주특별자치도 제주시 삼무로3길 46-1,33.490567,126.491045,064-711-5656,064-711-5656,,국수,제주식 고기국수와 암퇘지를 사용한 돔베고기가 맛있는 곳,4.31,
CNTS_000000000018380,만원의행복,제주특별자치도 제주시 신대로7길 9,33.491978,126.49785,064-712-2689,064-712-2689,매일17:00 - 23:00,생선회,당일 잡은 자연산 회를 만 원에 먹을 수 있는 곳,4.17,
CONT_000000000501364,제주해물밥,제주특별자치도 제주시 월대3길 14-6,33.4947,126.43402,064-746-5755,064-746-5755,,"해물,생선요리",조미료 없는 건강한 맛으로 제주 바다의 온갖 해산물을 오롯이 옮겨놓은 듯한 인상적인 밥상,4.3,
CNTS_000000000018578,하하호호,제주특별자치도 제주시 우도면 우도해안길 532,33.50332,126.95568,010-2899-1365,0507-1344-1365,,햄버거,"우도 북쪽, 우도 본연의 분위기가 살아있는 흑돼지 수제 햄버거집",4.46,
CNTS_000000000018630,섬소나이,제주특별자치도 제주시 우도면 우도해안길 814,33.5131507,126.9579066,064-784-2918,064-784-2918,"매일10:00 - 17:00
16:00 라스트오더",중식당,"하고수동해수욕장 정류장 바로 앞에 위치, 대표메뉴는 짬뽕과 피자.",4.58,
CONT_000000000501382,최고집,제주특별자치도 서귀포시 김정문화로 71,33.2507966,126.5123065,064-739-4777,064-739-4777,,돼지고기구이,1등급 이상의 제주 백돼지를 맛볼 수 있는 곳이다. 항정살과 오겹살에만 집중하여 최고의 맛을 선보인다.,4.41,
CNTS_000000000018378,북촌에가면,제주특별자치도 제주시 조천읍 북촌5길 6,33.547928,126.69252,064-752-1507,064-752-1507,,카페,핑크뮬리와 예쁜 꽃들로 가득한 북촌리의 조용한 카페,4.23,
CNTS_000000000020675,아뜰리에안,제주특별자치도 서귀포시 막숙포로 166,33.23151,126.5061,064-739-8100,0507-1346-8100,,브런치,올레 7길 법환과 강정 사이 범섬 앞에 위치한 카페로 전망 좋은 제주를 배경으로 커피 한 잔 하며 쉬어가기,4.35,
CNTS_000000000020808,덕성원,제주특별자치도 서귀포시 태평로401번길 4,33.2449505,126.5635161,064-762-2402,0507-1394-2410,"매일11:00 - 21:00
20:20 라스트오더",중식당,"100년의 역사를 자랑하는 제주도의 대표 화교 중식당, 2016 KOREAT TOP10 선정",4.1,
CNTS_000000000021118,보엠,제주특별자치도 제주시 원노형로 102,33.480579,126.483966,064-711-9990,064-711-9990,,베이커리,자연발효 빵집 보엠,4.48,
CNTS_000000000022589,메콩스카이,제주특별자치도 제주시 연오로 35,33.4902063,126.502177,064-711-5403,064-711-5403,"일10:30 - 21:30
15:00 - 16:30 브레이크타임
20:30 라스트오더",베트남음식,정성으로 우려낸 육수로 만든 한 그릇에 담긴 정성,4.53,
CNTS_000000000022260,생돈우리,제주특별자치도 제주시 우평로 38,33.479877,126.461846,064-713-5525,0507-1447-5526,,돼지고기구이,초벌에 살짝 구운 흑돼지 근고기를 깔끔하게!,4.57,
CNTS_000000000020119,사계바다,제주특별자치도 서귀포시 안덕면 형제해안로 26,33.227848,126.30391,064-794-5501,0507-1413-5501,,한식,이름에 걸맞게 사계바다가 눈앞에 펼쳐진 은갈치 전문점,,
CNTS_000000000022180,오드랑베이커리,제주특별자치도 제주시 조천읍 조함해안로 552-3,33.542137,126.671646,064-784-5404,064-784-5404,,베이커리,오드랑베이커리는 함덕 서우봉해변에 위치한 천연효모 베이커리이다.,4.5,
CNTS_000000000018294,에스프레소 라운지,제주특별자치도 제주시 한라대학로 1 (노형동),33.483097,126.477234,064-712-5151,064-712-5151,매일09:00 - 24:00,테이크아웃커피,제주공한 근처 분위기 좋은 Espresso Lounge cafe,4.43,
CNTS_000000000020444,제주미향,제주특별자치도 서귀포시 천제연로 99,33.255074,126.416466,064-738-8588,0507-1405-8589,,"해물,생선요리",중문관광단지에 위치한 해산물 요리 전문점,4.57,
CNTS_000000000018471,양가형제,제주특별자치도 제주시 한경면 청수동8길 3,33.307373,126.2541,010-9338-7734,0507-1405-7734,"일11:00 - 19:30
15:00 - 16:00 브레이크타임
18:30 라스트오더",햄버거,방치된 마을회관을 리모델링한 수제버거집,4.31,
CNTS_000000000020046,다가미,제주특별자치도 제주시 도남로 111,33.490448,126.528725,064-758-5810,064-758-5810,일정기휴무 (매주 일요일),김밥,푸짐한 속재료가 인상적인 테이크아웃 김밥집,4.33,
CNTS_000000000020064,블랑로쉐,제주특별자치도 제주시 우도면 우도해안길 783,33.515686,126.958084,064-782-9154,0507-1398-9154,일11:00 - 17:00,"카페,디저트",우도 하고수동 해변이 보이는 전망 좋은 카페,,
CNTS_000000000018942,우도해녀식당,제주특별자치도 제주시 우도면 우도해안길 440,33.514523,126.94903,010-9090-3509,010-9090-3509,,"해물,생선요리","우도해녀가 잡은 싱싱한 해물로 조리한 보말칼국수, 성게 미역국, 보말죽이 맛있는 곳",,
CNTS_000000000020331,삼일식당,제주특별자치도 제주시 한림읍 한림상로 92,33.40862,126.26358,064-796-3136,064-796-3136,,해장국,동명리 복지회관 인근에 자리잡은 해장국과 내장탕 전문점,4.52,
CNTS_000000000022763,카페소금,제주특별자치도 제주시 애월읍 구엄길 96,33.4825056,126.3761037,010-3669-5541,0507-1428-5541,,"카페,디저트",애월 소금염전 앞에서 단짠의 진수를 보여주는 소금커피 홀짝,4.51,
CNTS_000000000020755,우드스탁,제주특별자치도 제주시 구좌읍 월정7길 52,33.555305,126.79668,064-782-6948,064-782-6948,매일10:00 - 18:00,"카페,디저트",월정리 해변을 보며 마시는 커피,4.4,
CONT_000000000501410,한라식당,제주특별자치도 서귀포시 표선면 성읍정의현로 22번길 8,33.384098,126.807465,064-787-2026,064-787-2026,매일09:00 - 20:00,한식,돼지주물럭이 인기인 흑돼지 전문점,4.35,
CNTS_000000000021206,연우네,제주특별자치도 제주시 은수길 110,33.466785,126.48782,064-712-5646,064-712-5646,,한식,제대로 된 건강한 밥상,4.23,
CNTS_000000000022725,시골길,제주특별자치도 제주시 연동13길 9,33.488842,126.49479,064-743-1196,064-743-1196,,낙지요리,제주도에서 가장 유명한 낙지볶음,4.3,
CNTS_000000000022274,돌미롱,제주특별자치도 제주시 인다15길 43,33.47146814,126.5512019,064-759-3383,0507-1463-3385,,케이크전문,아라동 수제케익 & 타르트 전문점 카페,,
CNTS_000000000020122,오가네전복설렁탕,제주특별자치도 서귀포시 중산간동로 7738,33.26826,126.58964,064-738-9295,0507-1438-9309,,"곰탕,설렁탕",평범하지 않은 전복 설렁탕을 즐길 수 있는 음식점,4.65,
CONT_000000000501365,제주흑돈세상수라간,제주특별자치도 서귀포시 중산간동로 8051,33.2639747,126.5566914,064-762-8588,064-762-8588,,돼지고기구이,흑돼지 축산 농가 2곳을 직접 운영하는 흑돈세상 수라간,,
CNTS_000000000020200,소라횟집,제주특별자치도 제주시 구좌읍 해맞이해안로 1240-3,33.5323482,126.8463073,064-784-3545,0507-1415-3545,일정기휴무 (매주 일요일),생선회,세화해수욕장앞에 위치한 횟집,,
CNTS_000000000020815,픽스커피,제주특별자치도 제주시 신설로11길 2,33.476097,126.5543,064-902-9899,064-902-9899,,"차,커피","바리스타 부부가 운영하는 제주시카페, 계절별 제철메뉴,",,
CNTS_000000000021063,피자굽는돌하르방,제주특별자치도 제주시 한경면 청수로 218,33.30488,126.25584,064-773-7273,064-773-7273,,피자,제주산 통밀과 식자재를 넣은 건강한 피자,,
CNTS_000000000020695,돼지촌,제주특별자치도 제주시 원노형남1길 28,33.4838334,126.4834518,064-713-9222,064-713-9222,매일17:00 - 24:00,"육류,고기요리",제주시내 노형 오거리 인근에 위치한 등갈비 구이집,4.2,
CONT_000000000501355,제주뚝배기,제주특별자치도 서귀포시 성산읍 일출로 255,33.4611374,126.9330294,064-782-1089,0507-1436-1089,,"해물,생선요리",인기메뉴는 오분자기뚝배기와 전복뚝배기,4.19,
CNTS_000000000021197,어머니와고등어,제주특별자치도 제주시 도두봉2길 43,33.5061518,126.4734167,064-744-2882,064-744-2882,,한식,돌문어와 전복으로 맛을 낸 통갈치조림,4.29,
CONT_000000000501339,이오리,제주특별자치도 제주시 도리로 53,33.498657,126.45803,064-751-4905,064-751-4905,,"육류,고기요리",오리고기 전문 모범음식점,4.65,
CONT_000000000501358,제주삼다국수,제주특별자치도 서귀포시 김정문화로 59-1,33.2510739,126.5112127,064-739-3167,0507-1312-3167,,국수,제주삼다국수는 흑돼지 고기국수와 해물 흑돼지 샤브샤브를 전문으로 하는 명품국수전문점,4.29,
CNTS_200000000007144,까미노,제주특별자치도 제주시 애월읍 고하상로 91-12,33.4578162,126.3478853,064-799-9789,0507-1351-9789,"매일10:30 - 20:00
19:00 라스트오더","카페,디저트",애월 하가리에 있는 전망 좋은 카페,4.49,
CNTS_000000000020474,복자씨연탄구이,제주특별자치도 서귀포시 성산읍 해맞이해안로 2764,33.469234,126.91987,064-782-7330,064-782-7330,,돼지고기구이,우도와 지미봉을 바라보며 즐기는 진짜배기 흑돼지 구이,,
CNTS_200000000012745,돈사촌,제주특별자치도 제주시 서사로 7,33.5119174,126.5199295,064-722-9285,064-733-9295,"일(2/5)정기휴무 (매달 1, 3번째 일요일)","육류,고기요리","100% 제주산 생 근고기 전문점인 제주 돈사촌은 남녀노소 누구나 만족할 수 있는 편안한 분위기와 백돼지, 흑도지 두가지 근고기를 주문할 수 있으며 1인 주문도 가능하다.",4.39,
CNTS_200000000012718,삼보식당,제주특별자치도 서귀포시 중정로 25,33.2476846,126.559189,064-762-3620,064-762-3620,"일08:00 - 20:30
20:00 라스트오더",한식,"서귀포에 위치한 삼보식당은 이른 아침부터 맛있는 제주스러운 향토음식을 맛볼 수 있는 곳으로 대표 메뉴로는 전복뚝배기와 옥돔구이, 자리물회를 판매하고 있다.",4.16,
CNTS_200000000013058,비테비테,제주특별자치도 서귀포시 중앙로54번길 38,33.2497749,126.5636636,,010-3255-8218,,한식,서귀포시 올레시장내에 위치한 비테비테는 시장 구경을 하는 사람들의 발을 붙잡는 다양한 음식들이 마련되어 있어 간단히 요기하기에 좋은 곳이다.,4.27,
CNTS_200000000012558,청담집,제주특별자치도 제주시 월랑로 83,33.4917374,126.472442,064-743-6969,064-743-6969,일08:00 - 21:00,한정식,제주공항 인근에 위치한 설렁탕 전문점 청담집은 오픈키친으로 설렁탕이 만들어지는 과정을 눈에 담아낼 수 있으며 그만큼 진심을 다해 정성껏 선보인 한그릇은 맛과 정성이 담겨져 있다.,4.25,
CNTS_200000000013059,블랑제리,제주특별자치도 서귀포시 동홍중앙로52번길 2,33.2552393,126.572495,064-767-0913,064-767-0913,일정기휴무 (매주 일요일),베이커리,서귀포시 동흥동에 위치한 블랑제리는 유기농 재료를 사용하여 천연발효시켜 만들고 각 종 첨가물이나 색소가 들어가 있지 않은 건강한 빵을 만드는 곳이다.,4.47,
CNTS_200000000012645,곤밥2,제주특별자치도 제주시 서부두남길 8,33.5149292,126.5277707,064-759-2918,064-759-2918,,한식,"칠성로에 위치한 곤밥2는 정식, 즉 백반을 파는 곳으로 두루치기가 유명한 집이다. 이외에 여러 식사 메뉴와 더불어 계절 메뉴도 판매하고 있다.",4.59,
CNTS_200000000012980,연동길,제주특별자치도 제주시 은남2길 23,33.4881035,126.4934516,064-748-9363,064-748-9363,"일10:30 - 21:00
20:30 라스트오더",낙지요리,제주시 연동에 위치한 연동길은 싱싱한 낙지를 사용하여 매운게 땡기는 날이나 스트레스 받는 날 매콤한 낙지볶음을 즐길 수 있다.,4.21,
CNTS_200000000012989,안전식당,제주특별자치도 제주시 사라봉길 4,33.5144098,126.539254,064-752-3935,064-752-3935,,"찌개,전골","사라봉 오거리 인근에 위치한 안전식당은 오랫동안 동네 주민들이 많이 다녀간 한식 전문점으로 동태찌개, 김치찌개로 한끼 식사를 든든하게 채울 수 있는 곳이다.",4.43,
CNTS_200000000012663,동이트는집,제주특별자치도 제주시 신산로 71,33.5074222,126.5344843,064-758-2309,0507-1316-2309,일09:30 - 14:30,추어탕,신산공원 길 건너에 위치한 동이트는집은 매일 공수되는 신선한 재료를 사용하여 식사를 제공한다. 메뉴는 추어탕과 추어튀김이며 제공되는 반찬도 훌륭하다.,4.43,
CNTS_200000000007059,모앙,제주시 인다5길 12-4,33.483098,126.4772312,064-726-0320,010-6743-0064,,"카페,디저트",제주시 아라동에 위치한 디저트 카페인 모앙은 눈과 코를 자극하는 다양한 종류의 디저트와 음료가 마련되어 있어 메뉴를 선택하는 재미가 있는 곳이다.,4.52,
CNTS_200000000013020,그루브,제주특별자치도 제주시 한림읍 한림로 333,33.3936111,126.2401799,064-796-3336,064-796-3336,,카페,"제주시 한림읍에 위치한 라운지 카페 그루브는 넓고 푸른 협재해변을 한눈에 보면서 브런치, 디저트와 함께 여유를 즐길 수 있는 곳이다.",4.45,
CNTS_200000000013114,중문정,제주특별자치도 서귀포시 상예로 226,33.2647699,126.3936516,064-738-6264,064-738-6264,,생선구이,서귀포시 중문에 위치한 정식전문점인 중문정은 신선한 재료들을 이용하여 따뜻한 집밥 한상을 즐길 수 있는 곳이다.,4.54,
CNTS_200000000012641,싱싱잇,제주특별자치도 제주시 한림읍 한림로 181,33.3864136,126.2273431,,0507-1354-4841,일18:30 - 03:00,바(BAR),한림에 위치한 싱싱잇은 50년이 넘은 오래된 감귤 창고를 개조해 만든 비스트로 펍으로 각종 술과 어울리는 안주와 식사류를 판매한다. ,,
CNTS_200000000012675,카페한라산,제주특별자치도 제주시 구좌읍 면수1길 48,33.5246773,126.8630725,064-783-1522,064-783-1522,매일09:30 - 21:00,"카페,디저트","세화 해수욕장에 위치한 카페한라산은 탁 트인 바다를 배경으로 오래된 TV 속에 나를 담을 수 있는 곳이다. 두개의 동으로 본관과 별관이 있으며, 앞서 말한 TV가 있는 곳은 별관이다.",4.61,
CNTS_200000000008076,고사리식당,제주특별자치도 제주시 조천읍 번영로 1680,33.4777041,126.7135515,064-783-6564,064-783-6564,"일10:00 - 17:00
16:00 라스트오더",한식,거문오름 근처에 위치한 한식집,4.55,
CNTS_200000000013128,아리,제주특별자치도 서귀포시 홍중로 99,33.2613772,126.5555343,064-739-3183,064-739-3183,일정기휴무 (매주 일요일),일식당,서귀포시 서흥동에 위치한 일식당 아리는 신선하고 다양한 재료를 이용하여 바삭한 튀김이 위에 올라간 텐동을 만들어내고 있다.,4.64,
CNTS_200000000012633,잔물결,제주특별자치도 제주시 한림읍 금능길 58-1,33.3881255,126.2298026,070-8801-5564,0507-1342-5564,매일10:00 - 18:00,"카페,디저트",금능해수욕장 인근의 카페 잔물결은 오래된 가옥을 개조한 독특한 분위기의 디저트 카페이며 잔물결블렌드커피와 오늘의 구움과자 등 다양한 메뉴가 있다.,4.48,
CNTS_200000000013011,솔트스톤,제주특별자치도 제주시 연삼로 495,33.5003744,126.5425664,064-757-3338,0507-1375-3338,매일09:00 - 24:00,카페,"제주시 이도동에 위치한 솔트스톤은 '제주의 돌이 소금을 만들고, 소금이 바닷물이 되어 지금의 제주가 되었다'라는 스토리를 모티브로한 소금커피전문점이다.",4.32,
CNTS_200000000012721,카페텐저린,제주특별자치도 서귀포시 이어도로 880,33.2363651,126.5090964,064-738-9767,064-738-9767,,브런치,법환초등학교 건너편에 위치한 브런치카페. 다양한 주제의 브런치 메뉴와 음료가 있으며 야외정원에서 시간을 보낼수도 있고 800여 평의 귤밭에서 산책도 가능하다.,4.63,
CNTS_200000000012671,카페 라라라,제주특별자치도 제주시 구좌읍 해맞이해안로 1430,33.5248808,126.8580469,064-783-0464,0507-1328-0464,,"카페,디저트","세화 해수욕장에 위치한 카페 라라라는 드넓은 해변을 바라보며 예쁜 사진도 남기고, 맛있는 음료와 디저트까지 누릴 수 있는 콧노래가 절로 나는 감성 카페이다.",4.61,
CNTS_200000000012724,진주식당,제주특별자치도 서귀포시 태평로 353,33.2466426,126.5591353,064-762-5158,064-762-5158,일08:00 - 20:00,"해물,생선요리",서귀포칠십리시공원 인근에 위치한 진주식당은 다양한 제주 향토음식을 단품 식사와 한상차림으로 맛 볼 수 있으며 반찬으로 제공되는 젓갈류를 구매할 수 있다.,,
CNTS_200000000012701,온오프,제주특별자치도 제주시 우도면 우도해안길 876,33.5129211,126.9615353,,0507-1346-9807,,돈가스,우도 하고수동 해수욕장 인근에 위치한 온오프는 제주산 흑돼지로 직접 만든 수제돈까스를 판매하고 있는 흑돼지돈까스 맛집이다. 치즈돈까스와 속이 꽉 찬 흑돼지돈까스가 유명하다.,4.5,
CNTS_200000000012632,애월은혜전복,제주특별자치도 제주시 애월읍 애월로1길 24-3,33.4629304,126.3102157,064-799-9060,064-799-9060,,전복요리,"전복을 주제로 다양한 요리를 선보이는 애월은혜전복은 재료 하나하나에 정성을 기울여 요리를 내어준다. 전복돌솥밥, 전복물회 등의 식사메뉴와 전복구이, 전복찜의 추가메뉴 등이 있다.",4.49,
CNTS_200000000013095,선흘곶,제주특별자치도 제주시 조천읍 동백로 102,33.5081874,126.718049,064-783-5753,064-783-5753,일10:30 - 20:00,한식,제주시 조천읍에 위치한 쌈밥정식 전문점인 선흘곶은 신선한 재료들을 사용하여 정갈하고 푸짐한 자연식 한상차림을 즐길 수 있는 곳이다.,4.49,
CNTS_200000000012708,휴일로,제주특별자치도 서귀포시 안덕면 난드르로 49-65,33.2322977,126.3663755,064-739-4965,010-7577-4965,"매일10:00 - 19:00
18:30 라스트오더","카페,디저트",안덕면에 위치한 휴일로는 제주 올레길 8코스 라인에 있는 곳으로 바로 앞 드넓은 산방산 바다를 배경으로 여유있는 시간을 보내기에 좋은 카페이다. ,4.46,
CNTS_200000000008191,거기제주,제주특별자치도 서귀포시 대정읍 노을해안로 732 (신도리) ,33.2771433,126.1705781,010-4645-2565,0507-1402-2747,,공방,제주를 담은 음료와 기념품 + 제주를 담을 사진강의를 주제로하는 사진카페,,
CNTS_200000000012608,명태명가,제주특별자치도 제주시 연북로 514,33.4841141,126.5355699,064-755-9200,064-755-9200,일10:30 - 22:00,한식,속초산 명태를 산지직송하여 조리한 매콤달콤한 명태조림 전문점. 다양한 효능을 지닌 통통한 명태를 양념과 함께 김에 싸먹을 수 있는 곳.,4.34,
CNTS_200000000012737,썬셋클리프,제주특별자치도 제주시 애월읍 애월로1길 19-8,33.4618092,126.3107667,064-799-4040,0507-1398-4040,,"카페,디저트","애월카페거리에 위치한 썬셋클리프는 매일 새롭고 유니크한 곳에서 트렌디한 음악을 원하는 사람들 그리고 환상적인 일몰을 품은 바다를 배경으로 인생샷을 남기고 싶은 이들을 위한 장소로 맛 좋은 음식과 더불어 커피, 음료 등을 제공하고 있다.",4.3,
CNTS_200000000012706,만월당,제주특별자치도 제주시 구좌읍 월정1길 56,33.5561414,126.7930377,064-784-5911,064-784-5911,,양식,월정리 해수욕장 인근에 위치한 만월당은 제주산 해산물을 이용한 이탈리안 레스토랑으로 요즘 감성에 맞는 트렌디한 분위기로 맛과 멋 모두 채운 곳이다.,4.59,
CNTS_200000000012738,참솔식당,제주특별자치도 제주시 애월읍 유수암평화5길 21,33.423676,126.4062012,064-799-6638,064-799-6638,,한식,유수암에 위치한 참솔식당은 다양한 제철나물을 활용한 산채비빔밥 전문점으로 단품은 물론 세트메뉴도 준비되어 있어 다양한 메뉴를 한상 푸짐하게 즐길 수 있다.,4.37,
CNTS_200000000009774,공백,제주특별자치도 제주시 구좌읍 동복로 83,33.5535179,126.7151174,064-783-0015,064-783-0015,,"카페,디저트",진정한 제주를 느낄 수 있는 멋과 미가 있는 갤러리 카페,4.35,
CNTS_200000000012694,제주통큰장어,제주특별자치도 제주시 청귤로3길 50,33.5015724,126.5421719,064-759-0009,064-759-0009,매일10:00 - 22:00,"장어,먹장어요리",한옥으로 지어진 이 곳은 넓은 주차장을 보유하여 접근성이 뛰어나며 저렴한 가격에 푸짐한 장어요리를 즐길 수 있는 곳이다. 또한 보양식인 메기매운탕도 주문가능하다.,4.27,
CNTS_200000000013048,오라디오라,제주특별자치도 서귀포시 안덕면 사계로114번길 54-102,33.2351502,126.3081067,064-794-0340,064-794-0340,일09:30 - 18:00,"카페,디저트",제주 안덕면에 위치한 베이커리 카페인 오라디오라는 제주의 여러 오름과 달리 대부분 암반으로 이루어진 산방산의 정취를 한눈에 보고 느낄 수 있다. ,4.41,
CNTS_200000000012549,서진향해장국,제주특별자치도 제주시 제주대학로 183,33.4634314,126.5687054,064-721-0300,064-721-0300,,해장국,영평동에 위치한 서진향해장국은 해장국 전문점으로 맑은해장국과 매운해장국 그리고 내장탕을 판매하고 있다. 이른 아침 6시에 오픈하여 언제든 아침식사가 가능한 곳이기도 하다.,4.35,
CNTS_200000000012591,순두부엔짬뽕,제주특별자치도 제주시 통물길 30,33.4894183,126.4348515,064-745-4499,064-745-4499,,두부요리,"매일 새벽, 재래식으로 만든 두부를 사용하여 요리를 하는 이 곳은 짬뽕의 불맛과 순두부의 부드러움이 어우러진 순두부짬뽕과 다양한 두부요리를 맛 볼 수 있다.",4.42,
CNTS_200000000013024,윈드스톤,제주특별자치도 제주시 애월읍 광성로 272,33.3701721,126.4819697,070-8832-2727,070-8832-2727,,테이크아웃커피,제주시 광령리에 위치한 카페인 윈드스톤은 조용한 동네에서 옛스러운 가옥을 개조하였으며 실내 내부에 다양한 책들이 마련되어 있다.,4.62,
CNTS_200000000012651,용꽈배기,제주특별자치도 제주시 서광로30길 3,33.4999102,126.5270264,064-725-6772,064-725-6772,,베이커리,제주시청 건너편 골목에 위치한 용꽈베기는 남녀노소 누구나 즐겨찾는 꽈배기를 다양한 종류로 판매하며 낱개와 선물용 세트 구매가 가능하다.,4.44,
CNTS_200000000013015,제주머슴네,제주특별자치도 제주시 한림읍 옹포2길 8,33.400283,126.2501015,064-764-5559,064-764-5559,매일08:00 - 20:00,김밥,"제주시 협재리에 위치한 김밥전문점인 제주머슴네는 흑돼지, 전복, 어묵 등 신선한 식재료들을 이용하여 만든 특색있는 김밥이 마련되어 있다.",4.47,
CNTS_200000000012657,백리향,제주특별자치도 제주시 조천읍 신북로 244,33.5370188,126.6385048,064-784-9600,0507-1394-9600,,"백반,가정식",함덕 해수욕장 가기 전 조천농협 인근에 위치한 백리향은 누구나 부담 없이 즐길 수 있는 가정식 백반으로 된장찌개와 더불어 여러 맛 좋은 생선구이를 제공하고 있다.,4.43,
CNTS_200000000012967,진돼지,제주특별자치도 제주시 은수길 65,33.471491,126.4881721,064-746-1542,064-746-1542,,돼지고기구이,제주시 한라수목원 인근에 위치한 돼지고기구이 전문점인 진돼지는 두툼하고 신선한 제주산 돼지를 사용하여 육즙이 가득 찬 돼지고기구이를 맛볼 수 있다.,4.4,
CNTS_200000000012626,제주스,제주특별자치도 제주시 동문로 4 1호,33.5128008,126.5269479,,010-3693-4865,,"과일,주스전문점",제주 동문재래시장 내 위치한 제주스는 제주와 주스의 합성어로 오직 제주에서만 맛볼 수 있는 제주스런 주스를 만들어내는 카페이다. ,4.4,
CNTS_000000000020117,만선식당,제주특별자치도 서귀포시 대정읍 하모항구로 44,33.499622,126.53119,064-794-6300,0507-1315-6301,,생선회,모슬포에 위치한 만선식당은 싱싱한 고등어회를 필두로 고등어 조림과 갈치조림을 맛 볼 수 있는 곳이다. 여기에 추가하여 제주의 별미인 돼지산적을 추가할 수 있으며 고등어 구이도 주문 가능하다.,4.41,
CNTS_000000000021910,제갈양 제주협재점,제주특별자치도 제주시 한림읍 한림로 155,33.386135,126.224754,064-796-9933,0507-1413-9933,,"육류,고기요리","가시가 없어 먹기 편한 갈치조림과 갈치구이를 맛볼 수 있는 곳. 여기에 더해 칼칼한 갈치 뚝배기와 생선초밥, 회덮밥 등 다양한 추가 메뉴가 준비되어 있다.",4.56,
CNTS_000000000018400,명랑스낵,제주특별자치도 제주시 한림읍 한림로 585,33.409283,126.258835,070-4121-1110,0507-1344-4548,매일11:30 - 18:00,종합분식,제주시 한림읍에 위치한 분식집인 명랑스낵은 아늑한 실내에서도 음식을 즐길 수 있으며 옥상에도 테이블이 있어 넓은 바다와 비양도를 보면서 음식을 즐길 수 있다. ,,
CNTS_200000000007432,랜딩 다이닝,제주특별자치도 서귀포시 안덕면 신화역사로304번길 38 랜딩관 제주신화월드 호텔앤리조트 G층,33.30598235,126.3174917,064-908-2300,064-908-2300,일(2/5)휴무,해산물뷔페,랜딩관 제주신화월드 지하 1층에 위치한 올 데이 다이닝 공간.,4.2,
CNTS_200000000011653,동해미락,제주특별자치도 서귀포시 칠십리로 133,33.2436722,126.5683032,064-733-5921,0507-1310-5921,,생선회,"횟감좋은 서귀포횟집 동해미락, 바다전망! 푸짐한 해물모듬 활어회 코스요리, 다금바리, 갈치, 고등어회",4.64,
CNTS_000000000021862,타이웍,제주특별자치도 제주시 신설로11길 2,33.4913084,126.5441161,064-900-3145,0507-1405-3145,,태국음식,"아라동에 위치한 태국음식 전문점으로 뿌팟퐁커리와 새우팟타이, 소고기쌀국수, 파인애플 볶음밥 등 다양한 태국음식을 주문할 수 있다.",,
CNTS_000000000019945,풍림다방 송당점,제주특별자치도 제주시 구좌읍 중산간동로 2267-4,33.4718397,126.785755,1811-5775,1811-5775,,"카페,디저트",제주시 송당리에 위치한 디저트카페인 푸림다방 송당점은 넓직한 옛 주택을 개조하여 만들었으며 넓은 정원을 가지고 있어 야외테이블도 이용할 수 있다.,,
CNTS_000000000020201,글라글라하와이,제주특별자치도 서귀포시 대정읍 하모항구로 70,33.2194985,126.2515431,064-792-2737,0507-1410-2737,,양식,서귀포시 대정읍에 위치한 글라글라하와이는 제주의 생선과 감자 등 다양한 식재료를 이용하여 만든 이국적인 음식들을 맛볼 수 있는 곳이다.,4.53,
CNTS_200000000011475,쇼밥,제주특별자치도 서귀포시 보목로64번길 138,33.2411759,126.5931354,064-1661-2789,064-1661-2789,,"스테이크,립","쇼밥은 서귀포시내에 있는 레스토랑으로 4개의 섬이 한눈에 보이는 뷰와 가성비 끝판왕 의 수비드, 소안심스테이크, 소천지형상의 블랙치킨 등으로 유명한 곳이다.
",4.61,
CNTS_200000000008856,어머니의뜻을담다 단지,제주특별자치도 제주시 애월읍 하귀2길 66,,,064-712-0108,0507-1474-0138,,한정식,애월읍 바닷가 마을의 조용한 시골동네  전라도  어머니의 손맛이 담긴  밥상,4.31,
CNTS_200000000012710,더클리프,제주특별자치도 서귀포시 중문관광로 154-17,33.2814107,126.4111118,064-738-8866,0507-1312-8866,,"카페,디저트",중문 해수욕장에 위치한 복합 어뮤즈먼트 공간 더 클리프는 선셋을 감상할 수 있는 최고의 뷰를 지닌 장소로 이색적인 공간에서 다양하고 맛있는 식음료를 제공하고 있다.,4.27,
CNTS_000000000021098,티나케이크,제주특별자치도 서귀포시 서문로 61,33.247944,126.55698,,010-3323-6185,,"카페,디저트",서귀포시 서귀동에 위치한 티나케이크는 눈과 코가 즐거운 다양한 종류의 케이크가 전시되어 있으며 모든 케이크는 2-3일전 예약이 가능하다.,4.55,
CONT_000000000501152,피제리아3657,제주특별자치도 서귀포시 안덕면 난드르로 56,33.23645,126.36306,064-738-3658,0507-1408-3658,,피자,서귀포시 안덕면에 위치한 피제리아3657은 100% 참나무 장작을 사용하여 450도 이상의 고온에서 구워낸 이탈리안 화덕피자를 만나볼 수 있다.,4.23,
CNTS_200000000008134,제주다음,제주특별자치도 서귀포시 보목포로 27,33.2406529,126.6058635,064-738-6848,0507-1329-6848,,차,제주를 마시다!,,
CNTS_200000000011693,마로니에 미니골프카페,제주특별자치도 서귀포시 남원읍 신례천로 158-8,33.299995,126.6297939,064-767-4525,064-767-4525,,테마카페,"직접담근 수제청으로 만든 특별한 에이드, 맛있고 건강한 비건디저트, 남녀노소 누구나 쉽게 즐길 수 있는 18홀 미니골프 코스",4.85,
CNTS_200000000008353,코코리파이프,제주특별자치도 제주시 애월읍 하귀6길 22,33.4887078,126.4145642,064-748-6770,0507-1359-0884,,양식,"깨끗함, 청결함, 건강함을 지향하는 비스트로.",4.61,
CNTS_200000000007108,달그락식탁,제주특별자치도 제주시 조천읍 신흥로 2,33.5438444,126.6537298,064-784-3707,064-784-3707,,돈가스,신선한 제주식재료를 이용해 정갈한 가정식을 선보이는 식당,4.57,
CNTS_000000000018939,물꼬해녀의집,제주특별자치도 제주시 우도면 우도해안길 496,33.518635,126.94996,064-784-7331,0507-1363-7331,,한식,우도에 위치한 이 곳은 해녀가 직접 잡은 해산물 요리를 맛 볼 수 있는 곳이다. 문어와 해물이 한가득 들어간 문어라면과 칼국수 등 신선하고 다양한 메뉴가 있다.,4.62,
CNTS_000000000020189,미엘드세화,제주특별자치도 제주시 구좌읍 해맞이해안로 1464,33.52448,126.86187,064-782-6070,064-782-6070,일10:00 - 18:00,"카페,디저트","제주시 세화리에 위치한 카페인 미엘드세화는 푸른 세화바다를 한눈에 담을 수 있는 아기자기한 카페이며 케이크, 쿠키 등 다양한 디저트와 음료가 마련되어 있다.",4.56,
CNTS_200000000008451,사해방흑돼지,제주특별자치도 서귀포시 천제연로 263,33.2515411,126.4327965, 064-738-4577/ 4677/ 7775/ 2262,064-738-4577,,돼지고기구이,"청정 지역에서 자란 흑돼지를 맛볼 수 있는 흑돼지 전문점. 

",4.51,
CONT_000000000501173,그리운바다성산포,제주특별자치도 서귀포시 성산읍 성산등용로 94,33.46976,126.93005,064-784-2128,064-784-2128,,생선회,서귀포시 성산읍에 위치한 횟집인 그리운바다성산포는 제주산 싱싱한 생선과 해산물을 사용하여 다양한 한상차림을 대접하고 있다.,4.54,
CNTS_000000000020649,바람벽에흰당나귀,제주특별자치도 제주시 구좌읍 동복로 11,33.55385,126.70767,064-782-8611,064-782-8611,"매일10:00 - 19:00
18:30 라스트오더","카페,디저트",제주시 동복리에 위치한 바람벽에흰당나귀는 푸른바다를 볼 수 있는 창가자리가 많아 넓은 바다를 보며 다양한 음료와 디저트를 함께 즐길 수 있는 카페이다.,4.36,
CNTS_000000000022256,모모제이,제주특별자치도 제주시 인다8길 36-1,33.4261379,126.5626925,070-8621-5999,0507-1330-6000,,"카페,디저트",제주시 아라동에 위치한 브런치 카페인 모모제이는 신선한 재료들을 사용하여 다양하고 독특한 브런치 메뉴와 음료들을 만들고 있다.,4.43,
CNTS_000000000020287,문화통닭,제주특별자치도 서귀포시 성산읍 고성오조로 81,33.450886,126.91441,064-782-2345,064-782-2345,,"치킨,닭강정","40년 전통의 시장통닭 전문점인 문화통닭은 레트로한 감성의 건물에서 후라이드 마늘치킨, 양념치킨, 간장날개치킨등의 메뉴를 판매하며 모든 포장메뉴에 조밥과 겉절이가 포함된다.",4.35,
CNTS_200000000008869,원앤온리,제주특별자치도 서귀포시 안덕면 산방로 141,33.23923,126.3192943,064-794-0117,0507-1323-6186,,카페,제주에서 가장 아름다운 오션뷰 라운지,4.34,
CNTS_200000000013986,애나의숲 브런치카페,"제주특별자치도 서귀포시 중동로48번길 8 (서귀동, 귤섬가) 1층",33.2498876,126.5666331,070-4115-9122,0507-1331-9122,,브런치,"신선한 로컬 제주 식재료 사용한 수제 수프와 스튜, 이와 어우러진 브런치 메뉴를 제공하는 서귀포 시내에 위치한 레스토랑&카페",4.65,
CNTS_200000000007470,랜딩 라운지,제주 서귀포시 안덕면 신화역사로304번길 38 랜딩관 제주신화월드 호텔앤리조트 G층,33.30594648,126.3174703,064-908-2400,064-908-2400,,"카페,디저트","랜딩관 제주신화월드 로비옆에 위치한 음악과 피아노 선율을 감상할 수 있는 라운지.
",4.37,
CNTS_200000000010394,제주그림카페,제주특별자치도 서귀포시 안덕면 녹차분재로 218 4층,33.3029712,126.2990679,064-794-9224,064-794-9224,,테마카페,"제주그림카페는 전체 공간을 흑백의 그림으로 꾸민 독특한 테마의 테마카페이다. 마치 웹툰속 주인공이 된 듯 체험자가 돋보이는 사진찍기 좋은 명소로 자리잡고 있다. 또한 제주항공우주박물관 4층 전망대에 위치하고 있어 제주의 바다, 오설록, 한라산, 산방산 등을 한눈에 조망할 수도 있다.  ",4.53,
CNTS_200000000013021,뵤뵤,제주특별자치도 제주시 한림읍 명재로 155,33.3925265,126.2631484,,0507-1342-3614,"일10:00 - 18:30
18:00 라스트오더","카페,디저트",제주시 한림에 위치한 디저트카페인 뵤뵤의 명칭은 '새가 둥글게 원을 그리며 천천히 도는 모양'을 의미하며 이 집에는 다양한 종류의 음료와 디저트가 마련되어 있다.,4.33,
CNTS_200000000012550,김서방재첩해장국,제주특별자치도 제주시 원노형6길 27,33.4836667,126.4830103,064-711-3625,064-711-3625,,해장국,노형동에 위치한 깔끔 담백한 해장국 맛집 김서방재첩해장국은 이른 아침 분주한 이들에게 따뜻하고 든든한 한끼 식사를 제공하고 있다.,4.37,
CNTS_200000000012566,나라돈까스,제주특별자치도 제주시 절물1길 23,33.4907957,126.431772,064-711-0221,064-711-0221,일11:00 - 20:00,돈가스,외도일동에 위치한 돈까스 전문점 나라왕돈까스는 상호명 답게 푸짐한 양은 물론이며 모든 메뉴를 100% 수제 제작하여 즉석에서 바로 요리한다. ,4.33,
CNTS_200000000012743,공단해장국,제주특별자치도 제주시 복지로 96,33.4882771,126.527925,064-752-6301,064-752-6301,,한식,"도남동에 위치한 공단해장국은 이른 아침부터 이른 오후까지만 운영하며 해장국, 내장탕 두가지 메뉴만 판매하고 있는 맛집이다.",4.29,
CNTS_200000000013065,올디벗구디,제주특별자치도 서귀포시 일주서로 330,33.2529537,126.4735857,,010-9082-1914,,"카페,디저트",서귀포시 도순동에 위치한 디저트카페인 올디벗구디는 안전상의 이유로 노키즈존을 운영하고 있으며 10세이상의 아이와 반려동물은 출입이 가능하다.,4.65,
CNTS_000000000019940,어진이네 횟집,제주특별자치도 서귀포시 보목포로 93,33.2408963,126.6106901,064-732-7442,064-732-7442,,생선회,서귀포시 보목동에 위치한 어진이네 횟집은 된장을 베이스로 한 새콤달콤한 국물에 신선한 생선회를  올린 물회와 생선구이 등 다양한 메뉴가 마련되어있다.,4.22,
CNTS_200000000007453,하원가흑돼지,제주특별자치도 서귀포시 이어도로 278,33.326215,126.4716831,064-735-9507,064-735-9507,,돼지고기구이,약천사 인근에 위치한 흑돼지구이 전문점.,4.73,
CNTS_200000000013073,미드나잇 제주,제주특별자치도 서귀포시 안덕면 신화역사로304번길 98,33.2946472,126.3145575,064-909-2204,0507-1319-2204,"월18:00 - 24:00
23:00 라스트오더",요리주점,신화월드내에 위치한 요리주점인 미드나잇 제주는 다양한 음식들과 함께 가볍게 맥주 한 잔을 즐길 수 있는 곳이다.,,
CNTS_000000000022176,블랙포엠,제주특별자치도 제주시 조천읍 조함해안로 476-1,33.531406,126.66637,010-9388-0844,0507-1317-5588,월09:00 - 18:00,"차,커피",블랙포엠은 함덕 서우봉해변에 위치한 카페이다.,,
CNTS_200000000013055,땡큐베리,제주특별자치도 서귀포시 칠십리로 97,33.2411386,126.5658746,064-732-0932,064-732-0932,,펜션,서쉬포시 서귀동에 위치한 카페인 땡큐베리는 3층과 4층에는 펜션사업을 하고 있으며 1층과 2층에는 직접 수확한 블루베리를 메인으로 한 다양한 음료가 마련되어 있다.,4.57,
CNTS_000000000001198,과수원집,제주특별자치도 제주시 천수동로 35,33.507515,126.546295,064-724-3993,064-724-3993,,한식,다양한 오리와 닭 요리가 있는 백숙 맛집,4.82,
CNTS_200000000012997,회춘,제주특별자치도 제주시 조천읍 신북로 489,33.5431462,126.6625984,064-782-0853,0507-1336-0853,,한식,함덕해수욕장 인근에 위치한 한식당인 회춘은 1940년대에 돌로 지어진 회춘의원 구옥을 리모델링하여 그 시대에 사용했던 물건을 곳곳에 활용해 옛것의 정취가 묻어난다.,4.41,
CONT_000000000501167,광평도새기촌 본점,제주특별자치도 제주시 애월읍 구엄동3길 64,33.4817696,126.3811052,064-752-3308,0507-1465-3318,,돼지고기구이,근고기와 신선한 제주산 한우를 저렴한 가격에 제공하는 착한가격의 모범음식점 지정업소,4.7,
CNTS_000000000021493,성아시,제주특별자치도 제주시 한림읍 금능길 68,33.38842,126.230446,064-796-7607,0507-1408-7607,,한식,해산물이 푸짐하게 들어가 국물이 시원한 해물뚝배기,4.35,
CNTS_200000000009014,엉덩물,제주특별자치도 제주시 성두길 7-7,33.4909557,126.4949775,064-748-8885  ,064-748-8885,,한식,"제주도 대표 생선인 옥돔을 물회로 먹을 수 있는 곳
",4.43,
CNTS_200000000012672,카페록록,제주특별자치도 제주시 구좌읍 하도서문길 41,33.5289191,126.8790617,064-782-0714,064-782-0714,"월10:30 - 18:00
17:30 라스트오더","카페,디저트",하도리에 위치한 카페록록은 탁 트인 오션뷰를 배경으로 맛있는 커피와 디저트를 맛 볼 수 있는 곳으로 특히 이 집의 에그타르트가 유명하다.,4.5,
CNTS_200000000012543,외도339,제주특별자치도 제주시 일주서로 7345,33.4937566,126.4317907,064-748-0339,0507-1345-0339,,베이커리,아이와 어른 모두를 위한 다양한 음료메뉴와 베이커리류가 준비되어 있으며 2층은 노키즈존으로 운영하고 1층은 아이를 위한 모래놀이 공간과 넓은 정원이 마련되어 있다.,4.46,
CNTS_000000000020099,올래국수,제주특별자치도 제주시 귀아랑길 24 (연동),33.4915,126.4973,064-742-7355,064-742-7355,,국수,제주 향토 음식인 고기국수 전문점이다. 2016 KOREAT JEJU TOP 10 선정,4.38,
CONT_000000000501361,제주올레횟집,제주특별자치도 서귀포시 칠십리로 45,33.2408321,126.5618207,064-767-4422,064-767-4422,,생선회,서귀포 제주 올레길 6코스 서귀포항에 위치한 제주올레횟집,,
CNTS_000000000022232,다육이풍경,제주특별자치도 서귀포시 하효중앙로98번길 27,33.2588358,126.6225341,064-767-1324,064-767-1324,"매일10:00 - 18:00
17:30 라스트오더",한식,"하효마을에 위치한 카페 겸 식당, 다육이가 가득한 야외정원",4.35,
CNTS_000000000020796,미나리식당,제주특별자치도 서귀포시 중앙로59번길 11,33.249664,126.56034,064-733-3166,064-733-3166,,한식,서귀포시청 인근에 위치하며 돼지불고기 백반을 주종메뉴로 정성을 쏟는 맛집,,
CNTS_200000000012637,협재칼국수,제주특별자치도 제주시 한림읍 협재로 3,33.3968233,126.2445723,064-796-8107,0507-1335-8107,"월09:00 - 20:00
16:00 - 17:00 브레이크타임
19:30 라스트오더","칼국수,만두",협재 해수욕장 인근에 위치한 협재칼국수에서는 매일 새벽 가장 신선한 식재료로 제주산 보말을 사용한 보말칼국수를 대표로 제주스런 한끼 밥상을 정성스레 제공하고 있다.,4.47,
CNTS_200000000008010,명월국민학교,제주특별자치도 제주시 한림읍 명월로 48,33.388832,126.2649479, 070-8803-1955,070-8803-1955,"매일10:30 - 19:00
18:30 라스트오더","카페,디저트",폐교가 카페와 갤러리로 재탄생된 곳,4.49,
CNTS_000000000001233,비원,제주특별자치도 제주시 수목원길 3,33.470055,126.4862,064-712-8899,064-712-8899,"월10:30 - 21:00
20:00 라스트오더","백숙,삼계탕","제주 한라수목원 인근, 수목원테마파크 바로 맞은편에 위치해 있어 접근성이 좋은 삼계탕 전문점",,
CONT_000000000501301,아싸횟집,제주특별자치도 서귀포시 동홍중앙로 29-1,33.25354,126.571686,064-732-0414,064-732-0414,"월(2/6)정기휴무 (매달 1, 2, 4번째 월요일)",생선회,저렴한 가격에 신선한 회를 푸짐하게 맛볼 수 있는 도민 횟집,,
CNTS_000000000020816,성미식당,제주특별자치도 제주시 삼도1동 571-7,33.498318,126.5204,064-751-1250,064-751-1250,월10:00 - 22:00,한식,"제주시외버스터미널근처에있는 고등어해장국맛집입니다.
2016 KOREAT JEJU TOP10 선정",4.56,
CNTS_200000000013119,중국집마씸,제주특별자치도 제주시 한경면 두신로 78,33.3498359,126.1832048,064-772-3789,064-772-3789,"월11:00 - 19:40
14:40 - 17:30 브레이크타임",중식당,제주시 신창리에 위치한 중화요리 전문점인 중국집마씸은 제철의 재료를 사용하여 계절마다 속재료가 바뀌는 특색있는 짬뽕을 만들어낸다.,,
CNTS_000000000022889,석촌식당,제주특별자치도 제주시 중앙로2길 33,33.517265,126.52138,064-755-4096,0507-1335-6665,,한식,"좋은 재료를 사용해 어머니의 손맛으로 만드는 해산물 구이, 탕, 조림 전문 식당.",4.86,
CONT_000000000501329,올레수산회센터,제주도 서귀포시 중정로 61번길 12,33.24885,126.56308,064-732-4971,064-732-4971,,생선회,매일올레시장 안에 위치한 횟집,4.17,
CNTS_200000000012579,조은빵,제주특별자치도 제주시 인다3길 9,33.4261379,126.5626925,064-725-6774,064-725-6774,월07:00 - 22:00,베이커리,아라동에 위치한 조은빵은 말 그대로 건강과 정성을 생각하여 고객에게 좋은 빵으로 보답하는 쌀 빵 전문 베이커리이다. ,4.6,
CNTS_200000000014221,나무식탁,제주특별자치도 서귀포시 대정읍 도원로 214,33.2780987,126.1916359,070-4208-3858,070-4208-3858,,일식당,나무식탁은 대정읍 신도리에 위치해있다.,,
CNTS_000000000022057,명당양과,제주시 원노형로 83,33.481274,126.48501,064-746-1848,064-746-1848,월07:00 - 00:30,베이커리,옛날 스타일의 빵집이지만 모든 재료를 직접 만들어 신선한 빵을 맛볼 수 있는 1980년부터 시작한 제주 토종브랜드로 2대째 대를 이어 운영,,
CNTS_000000000020562,곱들락,제주특별자치도 제주시 조천읍 함덕18길 19,33.5394513,126.6704513,064-783-0992,064-783-0992,,돼지고기구이,곱다는 뜻의 제주어 '곱들락',4.55,
CNTS_200000000011073,제주돌창고,제주특별자치도 제주시 한경면 조수7길 8,33.3372623,126.2337582,064-773-1972,0507-1322-1972,,"카페,디저트",제주에 오직 하나뿐인 방앗간 카페로 제주전통음료와 디저트와 로컬푸드 디저트와 음료를 제공한다.,4.78,
CNTS_000000000020110,대우정,제주특별자치도 서귀포시 이어도로 866-37,33.2331332,126.5070238,064-733-0137,064-757-9662,,한식,이중섭거리에 위치한 해산물 전문 식당이다. 마가린에 비벼먹는 전복돌솥밥이 유명하다.,,
CNTS_200000000013319,행복맛집,제주특별자치도 제주시 진남로6길 32,33.5215751,126.5657613,064-758-6788,0507-1420-6788,월10:00 - 23:00,"아귀찜,해물찜",행복맛집은 2015년 호텔신라의 레시피 전수와 리모델링 지원을 통해 재개장한 ‘맛있는 제주만들기’ 8&11호점 식당이다. 화북동 주민센터와 화북종합시장 인근에 자리잡고 있어 현지 주민들의 입소문이 자자하다. ,4.89,
CNTS_200000000013324,함덕쉼팡,제주특별자치도 제주시 조천읍 조함해안로 584,33.5439787,126.6740276,,064-784-3949,"월10:00 - 21:00
15:00 - 17:00 브레이크타임",한식,"함덕쉼팡은 2017년 호텔신라의 레시피 전수와 리모델링 지원을 통해 재개장한 ‘맛있는 제주만들기’ 17호점 식당으로, 함덕해수욕장과 맞닿아 있어 오션뷰를 자랑하는 맛집이다.",4.49,
CNTS_200000000009010,제주901,제주특별자치도 제주시 1100로 2977-10,33.453057,126.4865013,010-4614-2518,0507-1315-2518,,펜션,채식주의자들을 위한 비건카페,,
CNTS_000000000001121,부두식당,제주특별자치도 서귀포시 대정읍 하모항구로 62,33.218906,126.25106,064-794-1223,064-794-1223,,생선회,"겨울 바다의 왕, 방어 요리가 일품인 부두식당",4.31,
CNTS_000000000020069,카페마니,제주특별자치도 제주시 구좌읍 해맞이해안로 1112,33.53737,126.83743,010-7129-7533,0507-1312-4835,,카페,빨간 소파에 누워 에메랄드빛 바다를 바라보며 커피한잔을 즐길 수 있는 테마로 유명한 카페,4.59,
CNTS_000000000001177,돌집식당,제주특별자치도 서귀포시 표선면 서성일로 23,33.39403,126.800644,064-787-3720,0507-1324-3720,,한식,성읍민속마을에서 맛보는 신선한 흑돼지 구이,4.51,
CNTS_000000000000991,도두해녀의집,제주특별자치도 제주시 도두항길 16,33.5062012,126.4666854,064-743-4989,064-743-4989,"매일10:00 - 20:00
15:30 - 17:00 브레이크타임
19:30 라스트오더",생선회,도두항에 위치한 해산물 요리 전문점. 물회가 싸고 맛있다며 소문난 집이다.,4.16,
CNTS_000000000020368,둥지식당,제주특별자치도 서귀포시 성산읍 성산등용로 96-3,33.4699665,126.9303414,064-782-1678,064-782-1678,매일11:00 - 21:00,한식,"성산일출봉에서 차량으로 5분 거리 내외에 위치한, 합리적인 가격에 제주의 갈치조림을 맛볼 수 있는 곳",,
CNTS_200000000012646,모닥치기,제주특별자치도 제주시 남광로2길 17,33.4912229,126.5386148,064-757-5632,0507-1345-5632,,종합분식,제주스타일의 모닥치기 전문점인 이곳은 특제 떡볶이 국물을 사용하여 가성비 좋은 모닥치기를 내어준다. 또한 분식류도 준비되어 있어 취향에 맞게 즐길 수 있다.,4.5,
CNTS_200000000007452,산책하우스,제주특별자치도 제주시 애월읍 고내로7길 49,33.46689,126.3369478,010-7625-7711,010-7625-7711,,민박,"산책하우스는 1층은 무인카페, 2층은 상상서가 북 스토어, 3층은 독채형 펜션이다. 특히 3층의 독채형 펜션은 깔끔한 내부와 바다 전망으로 인기가 많은 펜션이다. 펜션에 묵으며 모닝커피를 마시기 위해 1층 무인카페를 찾는 손님들도 많다.",,
CNTS_000000000001218,광원,제주특별자치도 제주시 1100로 3208,33.472656,126.48482,064-744-1000,064-744-1000,,소고기구이,한식과 일식의 조화,4.3,
CNTS_000000000001501,델문도,제주특별자치도 제주시 조천읍 조함해안로 519-10,33.54379,126.668846,064-702-0007,064-702-0007,,"카페,디저트",함덕 해수욕장 한가운데에 위치한 서우봉과 해변 풍경이 아름다운 카페,4.35,
CNTS_200000000007944,카페갤러리,제주특별자치도 제주시 조천읍 남조로 1717-24,33.42215,126.6753634,070-5101-0006,070-5101-0006,,"카페,디저트",사려니숲길 근처 사진 찍기 좋은 카페,,
CNTS_200000000012654,예산가마솥장수촌설렁탕,제주특별자치도 제주시 구남동8길 53,33.4853898,126.5357927,064-756-8248,064-721-6300,매일00:00 - 24:00,"곰탕,설렁탕","예산 가마솥 설렁탕은 가마솥에서 끓여내는 진골 육수를 사용한 설렁탕, 도가니탕, 꼬리곰탕 등 다양한 식사메뉴와 모듬수육, 도가니수육, 꼬리수육 등 한상 요리메뉴도 주문 가능하다.",4.48,
CNTS_000000000018465,명리동식당,제주특별자치도 제주시 한경면 녹차분재로 498,33.3166193,126.2705014,064-772-5571,064-772-5571,월정기휴무 (매주 월요일),돼지고기구이,자투리고기 연탄구이 전문점,4.4,
CNTS_000000000020688,냠냠제주,제주특별자치도 제주시 조천읍 신조로 121,33.5195859,126.6320441,064-784-5507,0507-1394-5508,,"판촉,기념품",제철에 나는 제주 친환경 농산물과 유기농 설탕을 이용해 만드는 수제 잼과 마멀레이드,4.63,
CNTS_000000000022076,제주이야기,제주특별자치도 제주시 구좌읍 행원로13길 67(행원리),33.55312,126.81699,064-782-1101,064-803-2011,,"판촉,기념품","천연꽃 화장품, 향수, 디퓨저를 직접 만들어 볼 수 있는 카페",4.45,
CONT_000000000501251,바다잔치,제주특별자치도 제주시 탑동로 79,33.51774,126.51693,064-702-8989,064-702-8989,매일09:00 - 22:00,한식,"제주산 갈치, 고등어 요리를 전문으로 하는 제주 향토음식 모범음식점",4.3,
CNTS_200000000008492,우무,제주특별자치도 제주시 한림읍 한림로 542-1,33.4059055,126.2565392,010-6705-0064,0507-1327-0064,,"카페,디저트",한림항 근처에 위치한 수제푸딩 전문점.,4.36,
CNTS_000000000019250,바다다,제주특별자치도 서귀포시 대포로 148-15,33.236816,126.437065,064-738-2882,064-738-2882,,"카페,디저트",하우스음악과 칵테일 음식 등을 즐길 수 있는 Beach Lounge,4.26,
CNTS_000000000001507,황금어장,제주특별자치도 제주시 사장길 14,33.4843984,126.4955557,064-748-8989,064-748-8989,"일09:00 - 21:00
20:00 라스트오더",한식,제주도 향토음식을 다양하게 즐길 수 있는 곳,4.29,
CNTS_200000000013450,길림성,제주특별자치도 제주시 남성로 37,33.5036633,126.5128253,064-724-6660,064-724-6660,,중식당,제주의 대표적인 중화냉우동 맛집,4.37,
CNTS_200000000009008,새빌,제주특별자치도 제주시 애월읍 평화로 1529,33.36437553,126.3630633,064-794-0073,064-794-0073,,"카페,디저트",제주 억새 명소 새별오름 뷰 애월 카페,4.27,
CNTS_000000000018299,애월더선셋,제주특별자치도 제주시 애월읍 일주서로 6111,33.4560041,126.3089078,064-799-7177,0507-1403-5943,,카페,애월에 위치한 애월더선셋은 노을 지는 애월 바다를 감상할 수 있는 오션뷰 브런치 카페로 운치 있는 분위기는 물론이며 맛 좋은 디저트와 음료를 제공하고 있다.,4.31,
CNTS_200000000007431,제주선,제주특별자치도 서귀포시 안덕면 신화역사로304번길 38,33.30761436,126.317513,064-908-1260,064-908-1260,"매일12:00 - 21:30
14:30 - 17:00 브레이크타임",한식,메리어트관 제주신화월드에 위치한 한식 전문점,4.36,
